timestamp,altitude_m,speed_mps,roll_deg,pitch_deg,yaw_deg,battery_percent,gps_lat,gps_lon
2026-03-09 15:12:57.306670,-0.1241877768039313,0.00633579476416291,-0.27569059208134145,2.4064749751936847,13.714567974625231,100.0,40.0,-74.0
2026-03-09 15:12:57.406670,-0.0019108322345692194,0.01775779422977498,-3.3549593736238164,5.355633722797434,11.865045513421066,99.99583263877312,40.0,-74.0
2026-03-09 15:12:57.506670,0.03872644519727992,0.12578713191605306,0.46357211106354623,6.359960233837436,-1.4320818361178218,99.99166527754626,40.0,-74.0
2026-03-09 15:12:57.606670,0.2215851588035337,-0.04475628544725395,0.01226813988460184,5.804057659262388,-1.40003508214484,99.98749791631938,40.0,-74.0
2026-03-09 15:12:57.706670,0.08382979151693079,0.07930437778405099,-4.556280253708825,8.100753746292483,4.162182583857435,99.98333055509252,40.0,-74.0
2026-03-09 15:12:57.806670,-0.009875571052164009,-0.23780625912155348,2.5182318099218346,5.794833785239647,-2.027535073343932,99.97916319386565,40.0,-74.0
2026-03-09 15:12:57.906670,0.18987158604524634,0.00554155333488808,-1.3117988958687286,7.613847096267041,-3.70508619282462,99.97499583263877,40.0,-74.0
2026-03-09 15:12:58.006670,-0.013460971822663342,0.027257368966840043,1.2151077373321284,3.0805890490356975,8.036746893463942,99.9708284714119,40.0,-74.0
2026-03-09 15:12:58.106670,0.0034013419164829195,0.2448236849638769,1.5688565777597145,5.052056434360722,6.374402607721572,99.96666111018503,40.0,-74.0
2026-03-09 15:12:58.206670,0.43510765375292937,0.1160886511471542,-0.46292587583660655,8.054204354331365,-10.9522344054484,99.96249374895815,40.0,-74.0
2026-03-09 15:12:58.306670,-0.021966769788419743,0.3371450045879335,-2.8848603692104122,8.932293183491232,2.7560428652764086,99.95832638773129,40.0,-74.0
2026-03-09 15:12:58.406670,0.21513634738776008,0.38365821377463394,0.2810018459147874,6.3686625397798915,2.1816060430494524,99.95415902650441,40.0,-74.0
2026-03-09 15:12:58.506670,0.26606991353984233,0.024168855276583828,0.920289660742823,10.107103437277006,8.863200805658192,99.94999166527755,40.0,-74.0
2026-03-09 15:12:58.606670,0.1492089571904961,0.2499284176855801,-3.753836692487267,5.555297886225717,-4.1061095422116916,99.94582430405067,40.0,-74.0
2026-03-09 15:12:58.706670,0.22421854751892692,0.2340350428285015,-1.6788978473224985,6.4734763714447805,-6.921633843853085,99.9416569428238,40.0,-74.0
2026-03-09 15:12:58.806670,0.20518196888386972,0.33072000882719343,-0.2361223419775201,2.727615586797049,-8.46815150528686,99.93748958159694,40.0,-74.0
2026-03-09 15:12:58.906670,0.31053541190752576,0.2731244613538677,-2.4553964051718786,5.531064519440923,-2.2414864067365836,99.93332222037006,40.0,-74.0
2026-03-09 15:12:59.006670,0.365373467523527,0.36881320665150574,-2.845100585908108,2.892331562660465,-2.3033882844805356,99.9291548591432,40.0,-74.0
2026-03-09 15:12:59.106670,0.3906674645884902,0.27286928122869336,1.0298871667824883,5.449655892417431,-1.9383325656461803,99.92498749791632,40.0,-74.0
2026-03-09 15:12:59.206670,0.10721021612460657,0.402275325297966,-0.579810570580186,2.4010710406769262,-3.282133847632499,99.92082013668944,40.0,-74.0
2026-03-09 15:12:59.306670,0.18954968407894673,0.500189036513439,-0.4084994855341585,7.521972615334587,-9.639519809986757,99.91665277546258,40.0,-74.0
2026-03-09 15:12:59.406670,0.26871047283556365,0.41699556373306734,3.443503491739013,3.576221161792587,1.6453909554309545,99.9124854142357,40.0,-74.0
2026-03-09 15:12:59.506670,0.3470496285745669,0.42002083191496076,-1.8042683177528083,4.898245315442312,-1.1157103520416423,99.90831805300884,40.0,-74.0
2026-03-09 15:12:59.606670,0.3268723121183156,0.3674257046851796,-3.6002036271401456,2.255703511601328,-8.019129878432722,99.90415069178196,40.0,-74.0
2026-03-09 15:12:59.706670,0.4465770889286882,0.5247196574824228,1.45576056508359,4.807436064844438,3.62422138587769,99.89998333055509,40.0,-74.0
2026-03-09 15:12:59.806670,0.5160271232064563,0.4438997513218474,1.075998444709889,3.5529483099166135,6.078087971034384,99.89581596932823,40.0,-74.0
2026-03-09 15:12:59.906670,0.35531979553729565,0.588395797865092,1.0159114809640422,2.3480389855566,3.318914873146397,99.89164860810135,40.0,-74.0
2026-03-09 15:13:00.006670,0.4743760463178614,0.5464812331987232,5.387058966908462,2.6569554659276506,0.12732272634273012,99.88748124687447,40.0,-74.0
2026-03-09 15:13:00.106670,0.4308632980209061,0.3079385582450214,-1.5599528261144235,9.439033492330717,10.991983109175509,99.88331388564761,40.0,-74.0
2026-03-09 15:13:00.206670,0.3445262763866721,0.5466066141595274,-0.48489564667277385,2.2314689836947115,5.579440449334405,99.87914652442073,40.0,-74.0
2026-03-09 15:13:00.306670,0.4632832499052664,0.5599655112622453,-2.5474722237946086,9.491891937004251,-9.33031077488777,99.87497916319387,40.0,-74.0
2026-03-09 15:13:00.406670,0.4656734557857824,0.5083218050296452,-0.4374421046419961,3.083336843165371,1.5535157993655127,99.870811801967,40.0,-74.0
2026-03-09 15:13:00.506670,0.6956180154878603,0.4874989092084755,-1.6301402092505033,8.35228322534785,-7.6689002322761395,99.86664444074012,40.0,-74.0
2026-03-09 15:13:00.606670,0.5777888740540007,0.729948375366053,3.6286311029201888,10.035504364688885,0.6803783826573115,99.86247707951325,40.0,-74.0
2026-03-09 15:13:00.706670,0.45834488530801315,0.6253954508228958,3.205932085591326,5.176004095000176,0.30280225669551847,99.85830971828638,40.0,-74.0
2026-03-09 15:13:00.806670,0.4963205958331745,0.6342077273716319,-2.8996213659326404,7.972416331520438,9.351235795094789,99.85414235705952,40.0,-74.0
2026-03-09 15:13:00.906670,0.6810688480521949,0.7225643541418587,-0.6220362959804362,1.287163090233162,-0.31637084933878457,99.84997499583264,40.0,-74.0
2026-03-09 15:13:01.006670,0.6665509485015194,0.9014160158659323,3.9316743199752757,6.812051794877415,-0.8911645611794908,99.84580763460576,40.0,-74.0
2026-03-09 15:13:01.106670,0.7270514624553175,0.8646309686492899,0.7056673983989957,3.6730326281267263,-1.4548536785235864,99.8416402733789,40.0,-74.0
2026-03-09 15:13:01.206670,0.511153942061316,0.8352859318948644,-2.032255005680034,2.985805425502059,1.8578771749045653,99.83747291215202,40.0,-74.0
2026-03-09 15:13:01.306670,0.781809289543212,0.8259203791936622,-1.940022432629883,1.6557331514129396,0.7327476799239871,99.83330555092516,40.0,-74.0
2026-03-09 15:13:01.406670,0.8949403057239184,0.787415885103993,-0.3633742786461886,2.0399244861019556,2.610332463776509,99.82913818969828,40.0,-74.0
2026-03-09 15:13:01.506670,0.6066338001147561,0.782657992349141,-2.4472614291641475,4.908471515247394,0.05381616950036426,99.82497082847141,40.0,-74.0
2026-03-09 15:13:01.606670,0.7469650922929129,0.7963334835776711,-1.3084821902307007,7.297069452461484,6.502055335978262,99.82080346724455,40.0,-74.0
2026-03-09 15:13:01.706670,0.9618094731529407,1.0433608281371325,0.647997361150704,3.1268222742134646,2.5484296639514548,99.81663610601767,40.0,-74.0
2026-03-09 15:13:01.806670,0.8706786765328489,0.8210240892202045,0.7047373150951375,7.936644926378159,-5.976963412683275,99.81246874479079,40.0,-74.0
2026-03-09 15:13:01.906670,0.7356762407865988,0.9349827654523665,-0.23404831370856316,7.091035945124318,-4.814462496224686,99.80830138356393,40.0,-74.0
2026-03-09 15:13:02.006670,0.9527435177060101,0.9222153996267468,-0.3872406347620711,6.398076503713778,-7.14148221237684,99.80413402233705,40.0,-74.0
2026-03-09 15:13:02.106670,0.5050562488253911,0.9517330196912148,0.7895999978925521,4.198568024898648,2.265036909817118,99.79996666111019,40.0,-74.0
2026-03-09 15:13:02.206670,0.863758780082368,0.9951584513153716,-0.8724153928491241,3.699057230232314,1.7614770867700626,99.79579929988331,40.0,-74.0
2026-03-09 15:13:02.306670,1.0027697292542115,1.243334347752029,-1.50665926904821,4.194529263390244,-3.624567839232019,99.79163193865644,40.0,-74.0
2026-03-09 15:13:02.406670,0.8393244386620137,1.0670692550633751,2.1959976224859115,5.7413207161590165,0.284841523688922,99.78746457742957,40.0,-74.0
2026-03-09 15:13:02.506670,0.8931107718885891,0.9948280761978708,0.813933842973414,4.1455430037900465,-1.019596398516667,99.7832972162027,40.0,-74.0
2026-03-09 15:13:02.606670,1.0782151790579682,1.1843012782059004,-1.042794612803498,3.101814325641062,8.328886527350813,99.77912985497584,40.0,-74.0
2026-03-09 15:13:02.706670,0.9745372812270143,1.101781341540036,0.7578946958192231,8.099998750670865,-3.354637260131122,99.77496249374896,40.0,-74.0
2026-03-09 15:13:02.806670,0.91998878157094,1.0506529243285854,-3.546197293323156,4.610334622742178,-5.518494091294482,99.77079513252208,40.0,-74.0
2026-03-09 15:13:02.906670,0.9060864527237982,1.2573986868696467,1.462989622605525,8.274108763281763,-2.503800344381469,99.76662777129522,40.0,-74.0
2026-03-09 15:13:03.006670,1.0544422251826602,1.1961017286557816,1.8234187155442974,1.302956034699602,-0.4647819454997768,99.76246041006834,40.0,-74.0
2026-03-09 15:13:03.106670,1.019399528000576,1.2160294461077483,-0.5365191168136312,6.9173537014863475,6.500166489023821,99.75829304884148,40.0,-74.0
2026-03-09 15:13:03.206670,0.9447045997474861,1.1871682605685696,-1.0849208510497275,2.4586414369118645,0.9275519035715356,99.7541256876146,40.0,-74.0
2026-03-09 15:13:03.306670,1.0598104317919395,1.1014066480444946,-1.9578429166091715,9.814179531209561,7.520139812835249,99.74995832638773,40.0,-74.0
2026-03-09 15:13:03.406670,1.0471260960429556,1.2602713970966744,-2.6520353671003405,1.4702821380753077,-8.703547375127801,99.74579096516086,40.0,-74.0
2026-03-09 15:13:03.506670,1.071775247179969,1.2548477997209793,-2.9411863039841,10.723499977868611,-6.5618791682237685,99.74162360393399,40.0,-74.0
2026-03-09 15:13:03.606670,0.9885791772281666,1.2138610266843568,-0.029270841415900355,-2.972295781318973,4.518458462271889,99.73745624270711,40.0,-74.0
2026-03-09 15:13:03.706670,0.9599902150847179,1.1899768106424808,1.0552978372869604,0.8169058633439128,-2.261660319761239,99.73328888148025,40.0,-74.0
2026-03-09 15:13:03.806670,1.0049720871642542,1.2920308898618595,1.9501553230631052,8.592134085638376,-0.38464557282830036,99.72912152025337,40.0,-74.0
2026-03-09 15:13:03.906670,0.9771260542969387,1.1825379768748223,1.7296478208991564,2.4192920400615563,-2.084688648312794,99.72495415902651,40.0,-74.0
2026-03-09 15:13:04.006670,1.1171678928140416,1.3488385120426,-0.6950431432209524,2.1754911083830857,5.2070195104772266,99.72078679779963,40.0,-74.0
2026-03-09 15:13:04.106670,1.1006119067601523,1.548623132443657,-1.0115041863804586,7.345857075341551,4.001071123655685,99.71661943657276,40.0,-74.0
2026-03-09 15:13:04.206670,1.0924772278485304,1.231793226591558,0.09436602379742745,3.79840025836761,4.275345838367054,99.7124520753459,40.0,-74.0
2026-03-09 15:13:04.306670,1.0493917979596321,1.2642572976238233,3.593784932081648,9.500641805245866,-8.229526180809561,99.70828471411902,40.0,-74.0
2026-03-09 15:13:04.406670,1.2478317998685198,1.3481350768813734,-3.1064864141666826,7.3204371024460935,0.34389372252716366,99.70411735289215,40.0,-74.0
2026-03-09 15:13:04.506670,1.161942097015741,1.3569382124745146,1.6227009119138547,1.1262834560464932,2.337933278302571,99.69994999166528,40.0,-74.0
2026-03-09 15:13:04.606670,0.9917570867041837,1.2504549264683775,-0.12137141382048014,1.4605266742399927,1.1931150005262818,99.6957826304384,40.0,-74.0
2026-03-09 15:13:04.706670,1.1575339785381848,1.3760908924681408,-0.9167802564746117,10.883157430764046,-5.37671843647502,99.69161526921154,40.0,-74.0
2026-03-09 15:13:04.806670,1.3096907056532194,1.5240160484724172,-0.7721720480909845,14.074348824397287,3.22147198985588,99.68744790798466,40.0,-74.0
2026-03-09 15:13:04.906670,1.2102914554187785,1.456633681535416,-1.1735420133557415,4.280951118459512,-0.540067446049389,99.6832805467578,40.0,-74.0
2026-03-09 15:13:05.006670,1.3923530531422756,1.6079065751104995,3.7463780902766004,3.657847835856564,1.1053408190577452,99.67911318553092,40.0,-74.0
2026-03-09 15:13:05.106670,1.373589219581492,1.4848362586266588,1.4280102888907933,9.917082728918798,9.662712446073378,99.67494582430405,40.0,-74.0
2026-03-09 15:13:05.206670,1.379321156637829,1.4483055446603217,0.12343435323154717,4.8947771807915466,2.387180616719988,99.67077846307718,40.0,-74.0
2026-03-09 15:13:05.306670,1.4828321428585256,1.5703871490373436,0.227742585438627,7.572958337493764,-2.597502656679435,99.66661110185031,40.0,-74.0
2026-03-09 15:13:05.406670,1.3828715184431222,1.5698712988894505,0.5989891742316868,5.6110238225681925,-0.026045628922968012,99.66244374062343,40.0,-74.0
2026-03-09 15:13:05.506670,1.1617067912692804,1.539265245450693,-0.8826642829260029,8.680647558040413,4.0919762923340235,99.65827637939657,40.0,-74.0
2026-03-09 15:13:05.606670,1.474904475860471,1.7711571795937668,-1.3683870623302576,6.159501524022248,7.08753104172873,99.65410901816969,40.0,-74.0
2026-03-09 15:13:05.706670,1.3272816391434386,1.6089527488913469,-1.5517020152480643,-2.022730306859371,-4.720596930801578,99.64994165694283,40.0,-74.0
2026-03-09 15:13:05.806670,1.4059446369275224,1.6295760310928522,0.5037984834719703,5.07120953144618,-4.23500874020032,99.64577429571595,40.0,-74.0
2026-03-09 15:13:05.906670,1.3312920863859201,1.933388649443915,4.565799701202381,3.7304999407401915,-4.252589544916549,99.64160693448908,40.0,-74.0
2026-03-09 15:13:06.006670,1.5965499136820551,1.9772871473203069,-0.7423836541389017,5.212039156251523,5.753730858588232,99.63743957326221,40.0,-74.0
2026-03-09 15:13:06.106670,1.6157299871449091,1.8508648090984727,1.2128638083972976,2.8881115866266196,2.6537075445358056,99.63327221203534,40.0,-74.0
2026-03-09 15:13:06.206670,1.4937989099350153,1.8417888276399934,2.0586903831009,8.807171930759152,-11.560382230394504,99.62910485080847,40.0,-74.0
2026-03-09 15:13:06.306670,1.3263214868039095,1.7117698433421553,-0.5750573541032429,4.71991223621147,-6.28274855084981,99.6249374895816,40.0,-74.0
2026-03-09 15:13:06.406670,1.5035368153365372,1.8257433253598618,1.3390538413669777,5.552593153556746,-1.7121356926440323,99.62077012835472,40.0,-74.0
2026-03-09 15:13:06.506670,1.628229599855802,1.8273830032361804,0.8114748077978466,3.935677133162629,8.794888157512906,99.61660276712786,40.0,-74.0
2026-03-09 15:13:06.606670,1.555520250200138,1.6289818845771797,-1.3557476513415185,6.93391518725256,1.8183827947993838,99.61243540590098,40.0,-74.0
2026-03-09 15:13:06.706670,1.5878092941740838,1.6774871536317089,-1.9117503271702465,1.5790075307342966,2.5771899503587923,99.60826804467412,40.0,-74.0
2026-03-09 15:13:06.806670,1.671211316304099,1.8796721656227633,-1.675643247624284,4.3328720002909575,7.050575154025925,99.60410068344724,40.0,-74.0
2026-03-09 15:13:06.906670,1.6259852772578398,1.9707333595752992,-2.4269080991148058,7.125602220808745,7.6579851680498265,99.59993332222037,40.0,-74.0
2026-03-09 15:13:07.006670,1.596741824206961,1.9486884104323672,0.5782267926201431,2.899259336341538,1.0689492393837237,99.5957659609935,40.0,-74.0
2026-03-09 15:13:07.106670,1.6054656203830986,1.8821667876457449,-2.0157861230423273,8.504445856973952,1.288895935212023,99.59159859976663,40.0,-74.0
2026-03-09 15:13:07.206670,1.651654393480814,2.0652249517423322,-1.1239823343615214,14.029536459955194,-0.7888188686297788,99.58743123853975,40.0,-74.0
2026-03-09 15:13:07.306670,1.5775560145894982,2.0085665526935754,-0.663342004638172,4.419898727557829,-10.132301484657246,99.58326387731289,40.0,-74.0
2026-03-09 15:13:07.406670,1.6897896159906607,1.905706749680499,-2.0466754788808275,0.7778720343259835,-4.431837235481181,99.57909651608601,40.0,-74.0
2026-03-09 15:13:07.506670,1.455251676087439,2.063847950834835,-0.09639137913088724,10.018492676854379,-2.525467878420801,99.57492915485915,40.0,-74.0
2026-03-09 15:13:07.606670,1.5867502464972607,2.1508260214960764,2.551698579736615,4.461181640590168,-3.0347583321163194,99.57076179363227,40.0,-74.0
2026-03-09 15:13:07.706670,1.6977591948029793,1.9599384777323179,-0.2556189742352154,5.139357600642553,-2.9129550154435804,99.5665944324054,40.0,-74.0
2026-03-09 15:13:07.806670,1.6606052121181702,2.088515971865549,0.553578504338586,2.4699344719658702,9.430600052943575,99.56242707117853,40.0,-74.0
2026-03-09 15:13:07.906670,1.7470979311096855,2.234047688858893,-1.6200748893637875,7.269015147693634,6.634948078025197,99.55825970995166,40.0,-74.0
2026-03-09 15:13:08.006670,1.8766117397784878,1.9916887573390543,2.0106620024128286,6.6182364150153425,-5.296163884430487,99.5540923487248,40.0,-74.0
2026-03-09 15:13:08.106670,1.860601296034772,2.1060143636004303,0.9744226421822125,4.33419258345414,3.6575367776034944,99.54992498749792,40.0,-74.0
2026-03-09 15:13:08.206670,1.92938287971483,2.1141559645576278,1.5713711643691524,9.011269449931572,3.1426059438599636,99.54575762627104,40.0,-74.0
2026-03-09 15:13:08.306670,1.8035756934353897,2.154276203434466,-2.152097209693367,8.925800582919793,2.5872288014535387,99.54159026504418,40.0,-74.0
2026-03-09 15:13:08.406670,1.7240515576360325,2.0691997100476978,0.644763819436538,5.315979331632099,4.565344460689963,99.5374229038173,40.0,-74.0
2026-03-09 15:13:08.506670,1.969961129440823,2.334495774675965,1.025289761288522,5.077000065939669,1.163571937726908,99.53325554259042,40.0,-74.0
2026-03-09 15:13:08.606670,1.9069019288534972,2.31924464786486,1.6674821594257374,10.30249420772604,11.538778598896458,99.52908818136356,40.0,-74.0
2026-03-09 15:13:08.706670,1.8755843373799868,2.1530650945695253,-0.6135767349539433,4.2407896870669,0.1495732982605482,99.52492082013669,40.0,-74.0
2026-03-09 15:13:08.806670,1.972346446804354,2.2752174508224194,-1.3738936081472382,5.68060833602232,-4.932801005279024,99.52075345890982,40.0,-74.0
2026-03-09 15:13:08.906670,1.7931428687480786,2.29095312894823,-0.3564962033539357,5.20911938761029,2.0040610148928,99.51658609768295,40.0,-74.0
2026-03-09 15:13:09.006670,2.089874971491934,2.431876462859848,-0.29146820744035085,2.07451004482174,-10.413407483783438,99.51241873645607,40.0,-74.0
2026-03-09 15:13:09.106670,1.9426751336205053,2.3069928426925457,-0.7700165787249323,2.0555361869898925,-5.570327630276614,99.50825137522921,40.0,-74.0
2026-03-09 15:13:09.206670,2.0689601802002806,2.3248025290656353,3.813970671115785,6.6271976063498155,-1.258020187602544,99.50408401400233,40.0,-74.0
2026-03-09 15:13:09.306670,1.853451289941704,2.3753128142267537,-0.003459899512460847,8.18161940446249,-6.671742419906201,99.49991665277547,40.0,-74.0
2026-03-09 15:13:09.406670,2.105946167438697,2.5653479614000108,-3.6973854660488112,-2.8511837973150214,4.649157381833709,99.49574929154859,40.0,-74.0
2026-03-09 15:13:09.506670,2.142680646554672,2.4002574168212445,-3.3953953023415084,8.129092515700924,6.5789746815244525,99.49158193032171,40.0,-74.0
2026-03-09 15:13:09.606670,2.1049033637220225,2.4808700538977058,-3.0324268684322857,4.846327958136071,-2.984253263941573,99.48741456909485,40.0,-74.0
2026-03-09 15:13:09.706670,2.3686268700825526,2.4479856491656085,-0.5504116398937852,3.613639246017466,5.084180218692039,99.48324720786798,40.0,-74.0
2026-03-09 15:13:09.806670,2.0809286733233683,2.4742227016143428,0.6695985632538656,6.213779441790272,-5.207898448043295,99.47907984664111,40.0,-74.0
2026-03-09 15:13:09.906670,2.185084461547497,2.5128056778758325,0.721410057985108,4.642807390404174,3.4284713003126837,99.47491248541424,40.0,-74.0
2026-03-09 15:13:10.006670,2.1337246215013113,2.5584710114432525,-2.1237511135248264,7.133197008569233,-5.579887843968623,99.47074512418736,40.0,-74.0
2026-03-09 15:13:10.106670,2.1192751814609765,2.4371350767751556,1.3958251599574005,0.922170417955454,8.1281771297779,99.4665777629605,40.0,-74.0
2026-03-09 15:13:10.206670,2.3644250401690132,2.5387400949764074,-2.5067545838762437,6.542034421092601,-3.555103667635276,99.46241040173362,40.0,-74.0
2026-03-09 15:13:10.306670,2.112181792833347,2.683209576394647,2.5637235641599974,6.222574874083323,-3.3637824483996437,99.45824304050674,40.0,-74.0
2026-03-09 15:13:10.406670,2.128047556118415,2.492920838968204,3.580630464835126,5.333987836257441,0.8594252244230537,99.45407567927988,40.0,-74.0
2026-03-09 15:13:10.506670,2.2552163258857423,2.6103644391648184,-0.22541083724495653,5.150117444199834,-8.450891910529853,99.449908318053,40.0,-74.0
2026-03-09 15:13:10.606670,2.2851024429864237,2.673181956761228,-0.39260546857054496,1.8447242321849309,2.187741625293475,99.44574095682614,40.0,-74.0
2026-03-09 15:13:10.706670,2.0326842950763395,2.6797602090235078,1.6993292125764894,8.115399170833117,6.603890269859079,99.44157359559927,40.0,-74.0
2026-03-09 15:13:10.806670,2.303463254269527,2.7915230143883134,-0.484052852853765,2.7058696815288115,-2.1145044981225314,99.43740623437239,40.0,-74.0
2026-03-09 15:13:10.906670,2.1552551976972403,2.686795158527959,-2.311381970721207,6.228896829068591,-1.0805149764711868,99.43323887314553,40.0,-74.0
2026-03-09 15:13:11.006670,2.2462128966902766,2.4728301145374814,0.18178917284736187,7.971102980984049,-4.4375346157995335,99.42907151191865,40.0,-74.0
2026-03-09 15:13:11.106670,2.3881644797996344,2.9329801088263694,1.8509576222678505,-3.565515490452458,0.3889693518692718,99.42490415069179,40.0,-74.0
2026-03-09 15:13:11.206670,2.628725292965746,2.7306710291321252,-4.240715786993355,6.24190697883002,-7.792283708733427,99.42073678946491,40.0,-74.0
2026-03-09 15:13:11.306670,2.374992628928043,2.7979718551464274,0.23417496843308708,6.362460816050228,3.7709370663782265,99.41656942823803,40.0,-74.0
2026-03-09 15:13:11.406670,2.4281050690820787,3.0494022498080686,2.67103535199002,9.982898874014914,2.9607141782004778,99.41240206701117,40.0,-74.0
2026-03-09 15:13:11.506670,2.522283884230465,2.9346036011875625,0.5178587961339057,4.888233082280501,-0.8680445368150849,99.4082347057843,40.0,-74.0
2026-03-09 15:13:11.606670,2.4015455803597074,2.886378854435826,-2.0946167321730442,3.233307468995629,6.386580182288821,99.40406734455743,40.0,-74.0
2026-03-09 15:13:11.706670,2.397440335359758,2.8732842887260945,0.27386827808494973,2.3987740545726637,1.3039999953950352,99.39989998333056,40.0,-74.0
2026-03-09 15:13:11.806670,2.3714682363588757,2.7761708391595072,-0.49336386914353586,0.7662175170222426,2.0753331853872092,99.39573262210368,40.0,-74.0
2026-03-09 15:13:11.906670,2.3057171633554474,2.9375734573568884,-1.0937585036290707,10.94695081622354,0.36227654312596436,99.39156526087682,40.0,-74.0
2026-03-09 15:13:12.006670,2.586708736825963,2.7609298835952356,-1.1733873277753324,1.284590319021214,-3.146883683537146,99.38739789964994,40.0,-74.0
2026-03-09 15:13:12.106670,2.347512585722103,3.140693669799212,-0.05172602323452623,3.075801204250758,-10.72197317548101,99.38323053842306,40.0,-74.0
2026-03-09 15:13:12.206670,2.5026050058531677,3.0963127752539603,-0.41946757959676284,4.87214594960574,5.40026598869459,99.3790631771962,40.0,-74.0
2026-03-09 15:13:12.306670,2.658715435551322,3.001286117984015,-2.2518604811756036,2.9897161825570393,-3.995947959409958,99.37489581596932,40.0,-74.0
2026-03-09 15:13:12.406670,2.609664080195455,3.002926961705136,2.510155274149065,8.751318242803844,3.2776420554707735,99.37072845474246,40.0,-74.0
2026-03-09 15:13:12.506670,2.4083005031674243,3.240268591689488,0.4727861336028074,5.092975347341008,11.70089826988691,99.36656109351559,40.0,-74.0
2026-03-09 15:13:12.606670,2.601852650229504,3.000643264411357,1.8395584890916503,0.2172359573649309,-7.093198144334846,99.36239373228871,40.0,-74.0
2026-03-09 15:13:12.706670,2.842167670250835,3.1128476316404896,-1.322275005224794,2.611145026477652,4.020173766825995,99.35822637106185,40.0,-74.0
2026-03-09 15:13:12.806670,2.5663669961422,3.0842519750446855,3.618642504464026,1.2342608886245805,-2.420913279484838,99.35405900983497,40.0,-74.0
2026-03-09 15:13:12.906670,2.5865195500120457,3.0298030050047404,2.082680113786921,4.310307630060219,0.8493926799622226,99.34989164860811,40.0,-74.0
2026-03-09 15:13:13.006670,2.6444373202210456,3.0176304745759905,0.12601537608088598,4.306878200104857,3.09337122959865,99.34572428738123,40.0,-74.0
2026-03-09 15:13:13.106670,2.7210408920798357,3.0537044466716443,2.0175961422014907,3.2061913268743583,-2.9114464771643425,99.34155692615435,40.0,-74.0
2026-03-09 15:13:13.206670,2.7576898880182643,3.1405753583945364,0.11047702627654654,6.050764645696614,2.190468701520468,99.33738956492749,40.0,-74.0
2026-03-09 15:13:13.306670,2.726616018435996,3.1315596937166013,1.5166582102396087,7.609729232219801,2.1132428390179,99.33322220370061,40.0,-74.0
2026-03-09 15:13:13.406670,2.717235542583621,3.055410871170551,-1.4143305207884973,8.596206339433433,3.1212965323294153,99.32905484247375,40.0,-74.0
2026-03-09 15:13:13.506670,2.7928892124854086,3.311967240308831,-0.18249258530844564,3.727030814250797,9.339178860548921,99.32488748124688,40.0,-74.0
2026-03-09 15:13:13.606670,2.7882791911376104,3.328109001089963,-1.9010546718646835,3.118518554152902,8.13264807222491,99.32072012002,40.0,-74.0
2026-03-09 15:13:13.706670,2.8605002946422275,3.4324158399835976,0.004970428589422371,4.016222828141,-1.4595325198405291,99.31655275879314,40.0,-74.0
2026-03-09 15:13:13.806670,2.9173529890132675,3.3824017577535397,-1.523241036980706,3.512880352424995,0.353125534126424,99.31238539756626,40.0,-74.0
2026-03-09 15:13:13.906670,2.6434329134865333,3.3465862141151916,-1.8465008907400682,4.003616708191222,-3.5399921880783918,99.30821803633938,40.0,-74.0
2026-03-09 15:13:14.006670,2.854739645389456,3.3249675548341107,-1.3954455485144375,5.4389916218366965,2.5816421280097384,99.30405067511252,40.0,-74.0
2026-03-09 15:13:14.106670,2.8061140283993518,3.2292584775725244,0.08975017413419856,4.220383145570631,2.636396327560878,99.29988331388564,40.0,-74.0
2026-03-09 15:13:14.206670,2.8214054430791182,3.3338597557341196,2.676069471740689,7.203787308016381,1.2255957241531898,99.29571595265878,40.0,-74.0
2026-03-09 15:13:14.306670,2.8986302925518572,3.2507015448892354,-0.3250348025101569,3.9882467249035582,-2.826099004076918,99.2915485914319,40.0,-74.0
2026-03-09 15:13:14.406670,2.942935546032296,3.593667120655441,-0.5801782430484259,9.421349506734572,3.036392725393053,99.28738123020503,40.0,-74.0
2026-03-09 15:13:14.506670,2.7844616856408884,3.2077326309459644,-2.352179852766806,4.174691139343458,2.6795872879308966,99.28321386897817,40.0,-74.0
2026-03-09 15:13:14.606670,2.9001245478639484,3.4288842810592244,-1.1774837890563175,6.207902768037267,-5.871593722778371,99.27904650775129,40.0,-74.0
2026-03-09 15:13:14.706670,2.807177140674684,3.5502765986038436,1.9834054558249898,0.8701602774256771,1.4353827764944112,99.27487914652443,40.0,-74.0
2026-03-09 15:13:14.806670,2.866953178028799,3.4857898571933656,-0.04213340733825595,3.784700839647702,-3.894045637819801,99.27071178529755,40.0,-74.0
2026-03-09 15:13:14.906670,2.975266176572172,3.522063062103911,2.4941434347351756,6.181579399773689,1.753294448216474,99.26654442407067,40.0,-74.0
2026-03-09 15:13:15.006670,2.949604718317008,3.541610802500092,-1.6692085399842285,6.362016726780423,1.2617977709790336,99.26237706284381,40.0,-74.0
2026-03-09 15:13:15.106670,3.078697038537916,3.537302303442907,-2.226933806916097,3.351817302780344,-2.8619967168583478,99.25820970161693,40.0,-74.0
2026-03-09 15:13:15.206670,3.1139786306340818,3.5163002099897835,0.050316583857943305,4.797634186759665,0.07632362951201224,99.25404234039007,40.0,-74.0
2026-03-09 15:13:15.306670,3.123488523871728,3.675734290881217,-2.332191737910831,7.262508040494779,-8.103442888639004,99.2498749791632,40.0,-74.0
2026-03-09 15:13:15.406670,3.071265147195507,3.699646942486654,0.9737001628772834,0.8772687172014972,3.521823339970175,99.24570761793632,40.0,-74.0
2026-03-09 15:13:15.506670,2.97323614192986,3.4178708965770497,-2.582278599978186,10.43316753383637,-3.404287447304629,99.24154025670946,40.0,-74.0
2026-03-09 15:13:15.606670,3.040777976582329,3.7525063130007483,2.0251994617441635,7.626236175691715,-7.6371119608816755,99.23737289548258,40.0,-74.0
2026-03-09 15:13:15.706670,3.0174809494798667,3.6696999025288854,-1.252068066576287,8.492293151719513,-0.33091295600670884,99.2332055342557,40.0,-74.0
2026-03-09 15:13:15.806670,3.3111062913705442,3.6009368840868152,2.0947617657565334,4.597085219896575,-1.5767025051773462,99.22903817302884,40.0,-74.0
2026-03-09 15:13:15.906670,3.000897250707916,3.5870659292365836,2.174492724514639,5.255426114422919,-2.24624813547707,99.22487081180196,40.0,-74.0
2026-03-09 15:13:16.006670,3.1759381376799363,3.7646125591914417,-0.17483564007464614,5.483459212638089,-0.7402128482529996,99.2207034505751,40.0,-74.0
2026-03-09 15:13:16.106670,3.163530666948113,3.861550090944308,2.190493603916593,1.7194023409295578,-7.797888151564743,99.21653608934822,40.0,-74.0
2026-03-09 15:13:16.206670,3.1414952234373787,3.9016883067002026,-0.5155251640699581,4.595588028510652,-1.2145389701177653,99.21236872812135,40.0,-74.0
2026-03-09 15:13:16.306670,3.1155731929238115,3.562517324747981,-2.310538092827058,7.104434673969061,7.1568345143705,99.20820136689449,40.0,-74.0
2026-03-09 15:13:16.406670,3.208814636922915,3.751048194621329,-1.002349706027043,4.445800739217487,-2.981937714762127,99.20403400566761,40.0,-74.0
2026-03-09 15:13:16.506670,3.1244054472325726,3.998678418827032,-0.1964928704153589,7.840608091917354,-13.526810431512889,99.19986664444075,40.0,-74.0
2026-03-09 15:13:16.606670,3.377670079870546,3.576107891430265,1.7542031435547767,4.983527741924007,3.5285267203737565,99.19569928321387,40.0,-74.0
2026-03-09 15:13:16.706670,3.2018383088353395,3.9502125661920147,3.77343996393232,3.9776122966554714,-2.405926085860763,99.19153192198699,40.0,-74.0
2026-03-09 15:13:16.806670,3.2096813929527177,3.8012420467979977,0.3086832221655229,1.3070146562430192,-0.9225766819159616,99.18736456076013,40.0,-74.0
2026-03-09 15:13:16.906670,3.210631802515897,3.9887131112045346,0.3830823795268013,3.7034236694962672,-1.2784122016180957,99.18319719953325,40.0,-74.0
2026-03-09 15:13:17.006670,3.3317342874342746,3.8785043372150927,-2.111663731171918,0.05021222989200773,7.339858892352437,99.17902983830639,40.0,-74.0
2026-03-09 15:13:17.106670,3.5303931036199456,3.9542319352663307,1.982119832000444,4.6895489949361275,-6.560519394887495,99.17486247707951,40.0,-74.0
2026-03-09 15:13:17.206670,3.4089568165709423,4.060580350092541,3.681630233267084,3.0038686859554478,6.1215595742922195,99.17069511585264,40.0,-74.0
2026-03-09 15:13:17.306670,3.079178051370257,3.713835083267727,0.05995596390640359,0.4057020531692168,-0.4972759898095329,99.16652775462578,40.0,-74.0
2026-03-09 15:13:17.406670,3.3042181496948477,4.119760933761426,2.362774680405913,5.533547490993738,-16.076021483875863,99.1623603933989,40.0,-74.0
2026-03-09 15:13:17.506670,3.5494522555272248,3.9918628862810746,-2.1614253217484003,2.0276530520204044,3.0004556444972015,99.15819303217202,40.0,-74.0
2026-03-09 15:13:17.606670,3.3504604664355124,4.174802038962797,4.451146508397245,3.328771247363162,-2.704474277884945,99.15402567094516,40.0,-74.0
2026-03-09 15:13:17.706670,3.376461214796141,4.025553692767173,-1.132348947936175,2.870849324755242,-3.724661261589981,99.14985830971828,40.0,-74.0
2026-03-09 15:13:17.806670,3.58943661535881,4.165756809109389,1.200823311933515,2.5984659626170377,5.010578062476513,99.14569094849142,40.0,-74.0
2026-03-09 15:13:17.906670,3.5573658410532256,4.053276061429345,2.0352308387708278,0.3740011809809005,-1.3586438675061678,99.14152358726454,40.0,-74.0
2026-03-09 15:13:18.006670,3.4750363048406583,4.010050067777854,-0.06970136806902316,-0.9378928219771631,-6.077059317114771,99.13735622603767,40.0,-74.0
2026-03-09 15:13:18.106670,3.4387198512197905,4.237293127417264,2.5411475623401443,4.73500867579154,-3.5085026858169726,99.1331888648108,40.0,-74.0
2026-03-09 15:13:18.206670,3.5426306569733104,4.12393997877322,0.05990859737317129,7.091863437958136,1.8399950820371747,99.12902150358393,40.0,-74.0
2026-03-09 15:13:18.306670,3.3276381213324693,4.194829891832699,-0.42567671995011697,5.511981216065745,1.2164981716296732,99.12485414235707,40.0,-74.0
2026-03-09 15:13:18.406670,3.6090778748934547,4.211902649833367,-2.0812574796661214,4.806274327328763,-6.767408287401493,99.12068678113019,40.0,-74.0
2026-03-09 15:13:18.506670,3.5736143133081724,4.283112391588674,0.5933298679997936,3.3179652403970916,4.875632813773949,99.11651941990331,40.0,-74.0
2026-03-09 15:13:18.606670,3.30064441712164,4.173150947409728,2.032158163817798,10.245738787052026,12.479549209221393,99.11235205867645,40.0,-74.0
2026-03-09 15:13:18.706670,3.562087305988849,4.319253667517682,2.0708129356196623,2.935916832330734,-2.5575000017502556,99.10818469744957,40.0,-74.0
2026-03-09 15:13:18.806670,3.445647620158097,4.215858188131309,1.856221838698473,-0.5497015034305347,-2.328692655438216,99.10401733622271,40.0,-74.0
2026-03-09 15:13:18.906670,3.6468681916079095,4.465446098990875,0.04369011742357629,4.669021329964751,-0.9587149360687532,99.09984997499583,40.0,-74.0
2026-03-09 15:13:19.006670,3.7217643186159446,4.506137920240144,-1.1960431417415138,4.832463933336289,4.188838522267571,99.09568261376896,40.0,-74.0
2026-03-09 15:13:19.106670,3.6054990610187456,4.4230677910023894,4.244774190803939,6.945953242014875,-2.0364496826788403,99.0915152525421,40.0,-74.0
2026-03-09 15:13:19.206670,3.6567467733289063,4.292587904279567,1.3405146405620978,5.745140465905555,0.13733623439994685,99.08734789131522,40.0,-74.0
2026-03-09 15:13:19.306670,3.581920350789977,4.606990305732862,0.7663427151098022,4.144740617075291,0.14126321747064155,99.08318053008834,40.0,-74.0
2026-03-09 15:13:19.406670,3.6141739655077427,4.328402079942001,-0.6408898396836135,5.2285842768589,2.022690396629815,99.07901316886148,40.0,-74.0
2026-03-09 15:13:19.506670,3.679661907494291,4.411343990323471,0.6105552822159312,6.948125143431624,-2.580726607092437,99.0748458076346,40.0,-74.0
2026-03-09 15:13:19.606670,3.685232244777878,4.577392175136404,0.38698493193289235,5.971863216014358,-4.993917809528835,99.07067844640774,40.0,-74.0
2026-03-09 15:13:19.706670,3.5255718923553228,4.49159004755677,-2.036807450939103,7.9744806427236306,7.6050527748021635,99.06651108518086,40.0,-74.0
2026-03-09 15:13:19.806670,3.7625420772340585,4.548989498134942,0.10317032686279995,8.31827564197788,-3.9011644820195035,99.06234372395399,40.0,-74.0
2026-03-09 15:13:19.906670,3.870015901336185,4.520076911709753,-1.6248402734048784,5.122926227793281,-2.1162577560169065,99.05817636272712,40.0,-74.0
2026-03-09 15:13:20.006670,3.6876938493837446,4.512695318707227,3.0584861391325506,4.009698678169765,-12.426626688286163,99.05400900150025,40.0,-74.0
2026-03-09 15:13:20.106670,3.8526918748757297,4.599068448070572,-3.4852556821780825,-1.1391321911497565,3.4461728480627856,99.04984164027339,40.0,-74.0
2026-03-09 15:13:20.206670,3.7040093995742023,4.606978309275854,-1.813510695001275,3.517587443337894,-5.648242177418514,99.04567427904651,40.0,-74.0
2026-03-09 15:13:20.306670,4.005917475914937,4.491445959703661,-1.4440136917754136,9.424438547209393,6.913352066388684,99.04150691781963,40.0,-74.0
2026-03-09 15:13:20.406670,4.038948139302773,4.508797358481585,-0.6144970516924646,1.4154105347931425,-7.1446108865253315,99.03733955659277,40.0,-74.0
2026-03-09 15:13:20.506670,3.779334596332792,4.682715015463543,-1.0750401169326107,6.4317854959337195,-9.88558773129783,99.03317219536589,40.0,-74.0
2026-03-09 15:13:20.606670,4.0891853008186825,4.638573471234352,1.5257230596592466,8.987845205558319,-5.122046701105281,99.02900483413902,40.0,-74.0
2026-03-09 15:13:20.706670,3.753545127485698,4.87197022291325,1.7157676771043329,5.5362925701893735,8.041241079603898,99.02483747291215,40.0,-74.0
2026-03-09 15:13:20.806670,3.8239424199235086,4.619573513966753,1.8504798617964795,3.838491089330798,-5.315330877986743,99.02067011168528,40.0,-74.0
2026-03-09 15:13:20.906670,3.847805834233352,4.912133654807849,-1.64361871525462,2.3037593323790193,-4.778219226259955,99.01650275045841,40.0,-74.0
2026-03-09 15:13:21.006670,3.961330539956469,4.742261652267093,0.0926016057746323,6.7687082734400255,7.721436460251702,99.01233538923154,40.0,-74.0
2026-03-09 15:13:21.106670,3.862547388110953,4.696457304714482,3.85673372802672,7.599089166410818,-3.292034788304292,99.00816802800466,40.0,-74.0
2026-03-09 15:13:21.206670,3.761852317345539,4.748263360694279,-2.280411995681814,0.27470520192129405,-3.362768344776674,99.0040006667778,40.0,-74.0
2026-03-09 15:13:21.306670,3.9959297221604926,4.72413384601379,0.023286675924453965,5.773595389426628,3.0580258814521244,98.99983330555092,40.0,-74.0
2026-03-09 15:13:21.406670,3.8759242585532445,4.8010874899408815,1.0261145103493974,7.196150166431685,3.299498366425325,98.99566594432406,40.0,-74.0
2026-03-09 15:13:21.506670,4.059846455952846,4.6543629297021365,-1.6537223624963822,8.342942699998048,2.798522616222246,98.99149858309718,40.0,-74.0
2026-03-09 15:13:21.606670,4.190771082400832,4.857349904117578,1.5455286707165818,4.445817633550873,3.5681290199913285,98.9873312218703,40.0,-74.0
2026-03-09 15:13:21.706670,4.0682683559747455,4.8361698494381615,-1.8227732853909469,9.259160925325707,-4.133119502234127,98.98316386064344,40.0,-74.0
2026-03-09 15:13:21.806670,4.190039641877511,4.868686700535698,-3.9806910580121646,-1.6284555409786072,-6.051800961539854,98.97899649941657,40.0,-74.0
2026-03-09 15:13:21.906670,4.0257666832750525,4.953298850276041,-0.7119023860704908,8.21805342484283,-0.6398761476959282,98.9748291381897,40.0,-74.0
2026-03-09 15:13:22.006670,3.9297143747383405,5.027646521522831,3.8519982997430793,4.10321004943814,-7.910746974656978,98.97066177696283,40.0,-74.0
2026-03-09 15:13:22.106670,4.122119488433085,4.953586440441671,-2.217243965130382,3.046398866669462,-2.826317352150499,98.96649441573595,40.0,-74.0
2026-03-09 15:13:22.206670,4.0693254974237965,4.9643390862627665,-1.0414333803823435,3.8376671282246986,0.043486421336618564,98.96232705450909,40.0,-74.0
2026-03-09 15:13:22.306670,4.138736027132533,5.0112246554360755,0.49624909179781374,-1.6114453756532956,-1.3571685453735312,98.95815969328221,40.0,-74.0
2026-03-09 15:13:22.406670,4.3249501913272335,5.0313053829413645,-1.8586003965299036,8.156504498983615,1.299731163824896,98.95399233205534,40.0,-74.0
2026-03-09 15:13:22.506670,4.146331595877997,5.0004110629320255,-4.291563534661636,2.445049151012324,-1.179783637947787,98.94982497082847,40.0,-74.0
2026-03-09 15:13:22.606670,4.0032798095054165,5.08515783812498,-0.4262183582758866,7.727464707661675,7.033806320701488,98.9456576096016,40.0,-74.0
2026-03-09 15:13:22.706670,4.222965216533593,5.056633727822583,4.241707300573542,1.9607101440867922,7.440221954808677,98.94149024837473,40.0,-74.0
2026-03-09 15:13:22.806670,4.3253841135936275,5.26294326551091,-2.0495577633582083,-1.0539500424317358,-3.7268424332627554,98.93732288714786,40.0,-74.0
2026-03-09 15:13:22.906670,4.26760393599114,5.025266358187072,-0.9747571368390583,7.085566340691444,-3.233796074228363,98.93315552592098,40.0,-74.0
2026-03-09 15:13:23.006670,4.227896417245648,5.14250072924052,-3.6961221778913815,1.559146493820016,-1.2773597749978847,98.92898816469412,40.0,-74.0
2026-03-09 15:13:23.106670,4.170199569028208,5.204099761546245,-1.4335041717021815,3.574080429618219,5.764559253230199,98.92482080346724,40.0,-74.0
2026-03-09 15:13:23.206670,4.4008638534945534,5.171114485636193,1.2036088807184724,5.508924561837144,3.783103704428148,98.92065344224038,40.0,-74.0
2026-03-09 15:13:23.306670,4.327881339388113,5.241788411584004,0.07047971658738723,1.304015469455042,2.188573086196651,98.9164860810135,40.0,-74.0
2026-03-09 15:13:23.406670,4.189430055673662,4.963736087542923,6.174900231508135,2.117023759174627,4.287462704203357,98.91231871978663,40.0,-74.0
2026-03-09 15:13:23.506670,4.363894966352568,5.180160663409838,1.855913642404398,5.312870290456612,-13.037060866260456,98.90815135855976,40.0,-74.0
2026-03-09 15:13:23.606670,4.3955923050724754,5.209871959788493,0.7015295861070961,2.1839840102277006,5.458115516516421,98.90398399733289,40.0,-74.0
2026-03-09 15:13:23.706670,4.362307874598083,5.281738734984793,-2.1272999805061668,1.4430436105163047,0.14325414056002717,98.89981663610602,40.0,-74.0
2026-03-09 15:13:23.806670,4.468979959292095,5.314182326985087,-0.03694908183343565,5.274141906654502,-0.6765815719703917,98.89564927487915,40.0,-74.0
2026-03-09 15:13:23.906670,4.291675075122898,5.315723230726115,-1.0501281443801993,6.90133729356322,-0.05171862087016117,98.89148191365227,40.0,-74.0
2026-03-09 15:13:24.006670,4.525625870850035,5.25414729550812,-2.3473569388778563,-1.4340695077002412,-6.3828421707465415,98.88731455242541,40.0,-74.0
2026-03-09 15:13:24.106670,4.576833693699509,5.3187509850325325,-0.3372469949466254,8.784622077852728,5.329301859008345,98.88314719119853,40.0,-74.0
2026-03-09 15:13:24.206670,4.386427092919614,5.603881699069198,-1.2535350864162826,5.276651882571386,-3.4436521411554284,98.87897982997166,40.0,-74.0
2026-03-09 15:13:24.306670,4.5384338047028665,5.226605237051894,0.7606335110529516,4.402048275535821,3.7056871776954172,98.87481246874479,40.0,-74.0
2026-03-09 15:13:24.406670,4.2990067766556335,5.479029922787539,-0.27608351460947783,6.352175700965567,-9.809963099166017,98.87064510751792,40.0,-74.0
2026-03-09 15:13:24.506670,4.6572240072136175,5.636627531855618,-0.8623002558156158,5.632790410671456,11.291046405130794,98.86647774629105,40.0,-74.0
2026-03-09 15:13:24.606670,4.416416408611015,5.366352336816935,-0.5681074865770822,4.250415919758272,2.638588817250747,98.86231038506418,40.0,-74.0
2026-03-09 15:13:24.706670,4.584750097993711,5.489320733490159,-5.402365927890197,-1.5881230447412993,4.31422138477113,98.8581430238373,40.0,-74.0
2026-03-09 15:13:24.806670,4.5451017589387135,5.626673500687703,0.1439144899415496,5.63602137696128,-7.6872766089656785,98.85397566261044,40.0,-74.0
2026-03-09 15:13:24.906670,4.451413195943774,5.3122937955343135,-2.9962788811891947,4.4321214003808915,-0.08567521323005203,98.84980830138356,40.0,-74.0
2026-03-09 15:13:25.006670,4.687068473061092,5.485410510118552,0.014029365113250647,6.460723164478511,-5.518052152147918,98.8456409401567,40.0,-74.0
2026-03-09 15:13:25.106670,4.641688669155481,5.616208377545246,-1.7538653306382148,4.3632475253611815,-3.829642249979048,98.84147357892982,40.0,-74.0
2026-03-09 15:13:25.206670,4.698082661902173,5.619912482670012,0.16815589594487274,4.496385318828929,5.331284598187242,98.83730621770295,40.0,-74.0
2026-03-09 15:13:25.306670,4.7096041180875,5.5602473584351175,2.0026884683335733,5.998020245523317,3.8659002784613286,98.83313885647608,40.0,-74.0
2026-03-09 15:13:25.406670,4.538511575765286,5.639609582882091,0.5028312397547147,11.3645571455612,4.914664872368821,98.8289714952492,40.0,-74.0
2026-03-09 15:13:25.506670,4.599605309657116,5.635063550801696,0.12201444544035749,3.305586288554584,4.776934248895579,98.82480413402234,40.0,-74.0
2026-03-09 15:13:25.606670,4.604054204998332,5.577170415234166,1.227330441053686,5.0641832155128395,0.41452429532482554,98.82063677279547,40.0,-74.0
2026-03-09 15:13:25.706670,4.624452986392059,5.604367066560719,-3.2657144594983403,11.655405400808545,0.9805331970198209,98.81646941156859,40.0,-74.0
2026-03-09 15:13:25.806670,4.727816433417991,5.668730826817967,0.3256037998120845,7.883065428260482,-1.9386765719274022,98.81230205034173,40.0,-74.0
2026-03-09 15:13:25.906670,4.858049434728458,5.538497085612741,1.2940045742494357,0.31671275569199686,-4.903139155830603,98.80813468911485,40.0,-74.0
2026-03-09 15:13:26.006670,4.8649520740714305,5.802014916335199,1.7416888704576465,3.8176244558748396,4.157526299150561,98.80396732788797,40.0,-74.0
2026-03-09 15:13:26.106670,4.685384590728447,5.7910350728067685,-0.12541808633415455,0.9913828001278903,1.933414222617848,98.79979996666111,40.0,-74.0
2026-03-09 15:13:26.206670,4.540167778410059,5.769887398991751,-2.845275783597794,3.852714335828059,-9.095492181763767,98.79563260543424,40.0,-74.0
2026-03-09 15:13:26.306670,4.815489029523676,5.877118257675315,1.5265489862251842,2.8812510775725295,5.140579200682702,98.79146524420737,40.0,-74.0
2026-03-09 15:13:26.406670,4.904786979377176,5.818289769088451,-0.6612107427670122,1.634535247502801,0.49209044598348706,98.7872978829805,40.0,-74.0
2026-03-09 15:13:26.506670,4.788467268025125,5.6581110512388575,1.5072821948428696,7.683525186661239,-3.912899466555227,98.78313052175362,40.0,-74.0
2026-03-09 15:13:26.606670,4.856672613428669,5.674901270020915,0.710351552694286,6.892409950284816,-3.1641544918129774,98.77896316052676,40.0,-74.0
2026-03-09 15:13:26.706670,4.892868348426478,5.835034569908366,0.27098637314593255,7.110076331727665,2.916912253621658,98.77479579929988,40.0,-74.0
2026-03-09 15:13:26.806670,4.910629566167583,5.784365115176861,0.38401809117859426,2.568107741405209,0.8475832263797289,98.77062843807302,40.0,-74.0
2026-03-09 15:13:26.906670,5.0088805325476535,5.9605460712320175,-1.242008185440327,2.3949097995702497,16.267194756640674,98.76646107684614,40.0,-74.0
2026-03-09 15:13:27.006670,4.931106305548899,5.930165967211751,-1.456002259284046,3.219665283370732,1.656726565280368,98.76229371561926,40.0,-74.0
2026-03-09 15:13:27.106670,4.936687893013225,5.987988315674959,-2.94315745625711,8.017139295489368,1.234816505509027,98.7581263543924,40.0,-74.0
2026-03-09 15:13:27.206670,5.06805257820692,5.848024676165793,-1.99675179165887,6.544344316776025,0.4082525638401074,98.75395899316553,40.0,-74.0
2026-03-09 15:13:27.306670,4.900682389527256,5.995739605966603,-2.899703002454378,1.8222693991132222,-2.0988122453450178,98.74979163193866,40.0,-74.0
2026-03-09 15:13:27.406670,5.137752592529091,5.945480045876165,-0.7846285234099851,6.748937223115859,-2.7228771701421035,98.74562427071179,40.0,-74.0
2026-03-09 15:13:27.506670,5.323669468647304,6.161554263939742,0.11385274751921026,1.0583684424765922,1.80706395288215,98.74145690948491,40.0,-74.0
2026-03-09 15:13:27.606670,5.174485997200492,5.96218167099801,0.5637081638227657,4.946551469752115,3.389209782002163,98.73728954825805,40.0,-74.0
2026-03-09 15:13:27.706670,5.080037814023108,5.887362838483023,-0.40267256875942037,8.601149169312258,-7.8622969216764265,98.73312218703117,40.0,-74.0
2026-03-09 15:13:27.806670,5.021861671762029,6.104045027936081,-0.4310373304045204,9.99340242081719,2.7426645665388536,98.7289548258043,40.0,-74.0
2026-03-09 15:13:27.906670,5.329132456511649,6.059264029174714,4.154046508309917,6.48509298095637,1.8933651988354554,98.72478746457743,40.0,-74.0
2026-03-09 15:13:28.006670,5.198450330697051,6.163972581322937,-1.0967884902071265,6.725100652268377,-0.46792156966362264,98.72062010335056,40.0,-74.0
2026-03-09 15:13:28.106670,5.049486274350263,6.266519977158353,0.7358159450004411,4.976737524448177,10.32550456342474,98.71645274212369,40.0,-74.0
2026-03-09 15:13:28.206670,5.14441303096394,6.210477351421347,-0.37995854223284337,3.857895460097228,-9.098558597030326,98.71228538089682,40.0,-74.0
2026-03-09 15:13:28.306670,5.151028982958298,6.184910492330666,2.523340414217188,6.478482822591054,7.872535050499036,98.70811801966994,40.0,-74.0
2026-03-09 15:13:28.406670,5.260274974272895,6.152872562920868,-0.8033772224419428,6.306350457226058,-1.541271261682278,98.70395065844308,40.0,-74.0
2026-03-09 15:13:28.506670,5.09512321622297,6.314840012865435,-1.704478833028369,1.2351293405777772,1.021094802450809,98.6997832972162,40.0,-74.0
2026-03-09 15:13:28.606670,5.252999843647822,6.319952339621276,-2.942499830158689,5.922373402082303,6.279830853667984,98.69561593598934,40.0,-74.0
2026-03-09 15:13:28.706670,5.0259182869654415,6.201910637556943,-0.2764274067296845,4.236346609794838,0.9369575441912971,98.69144857476246,40.0,-74.0
2026-03-09 15:13:28.806670,5.229527474480647,6.27316552459746,-1.9990859416750244,7.784997972233549,0.6529557316846286,98.68728121353558,40.0,-74.0
2026-03-09 15:13:28.906670,5.350360470834892,6.378864468555316,1.4352106044508615,9.489892596901598,-0.00776013334599049,98.68311385230872,40.0,-74.0
2026-03-09 15:13:29.006670,5.393488338307084,6.38646967320832,-0.14751471959081647,3.1136609009947636,-3.0954063058302728,98.67894649108185,40.0,-74.0
2026-03-09 15:13:29.106670,5.189584459599119,6.405723277044351,0.9146162024032598,-0.1595349824396534,-5.698268960307044,98.67477912985498,40.0,-74.0
2026-03-09 15:13:29.206670,5.321092107882939,6.451040960079792,2.904501185809762,4.390585078894976,3.665577088790795,98.6706117686281,40.0,-74.0
2026-03-09 15:13:29.306670,5.447742231406814,6.471387074938602,-0.3386649822862665,1.8245604209105768,10.841061696577292,98.66644440740123,40.0,-74.0
2026-03-09 15:13:29.406670,5.336877388367373,6.480803320503761,0.18000796205303715,8.642987395785187,2.9707006709263726,98.66227704617437,40.0,-74.0
2026-03-09 15:13:29.506670,5.292119963887687,6.366164334023834,1.5096987355244575,3.893993672323825,4.1856790109643685,98.65810968494749,40.0,-74.0
2026-03-09 15:13:29.606670,5.306080629257553,6.482552104813416,-1.8240039932511483,7.882124617462971,4.372740457773521,98.65394232372061,40.0,-74.0
2026-03-09 15:13:29.706670,5.537676666790032,6.335093631174922,-3.832733253189462,0.9955820688323938,10.005660827213928,98.64977496249375,40.0,-74.0
2026-03-09 15:13:29.806670,5.365393227227436,6.415552659631696,-1.9429276470157137,9.72122204689447,5.036137630599314,98.64560760126687,40.0,-74.0
2026-03-09 15:13:29.906670,5.345164021179542,6.608000503627268,-0.433030373553775,9.36256080554433,3.693356564936839,98.64144024004001,40.0,-74.0
2026-03-09 15:13:30.006670,5.3521687259502695,6.4956371896359375,-0.20262414566347298,4.853464238230321,5.9385806235531735,98.63727287881314,40.0,-74.0
2026-03-09 15:13:30.106670,5.297491120661049,6.47049583336368,-0.5976741549319133,5.031988684791536,-11.928819793812956,98.63310551758626,40.0,-74.0
2026-03-09 15:13:30.206670,5.460087115101643,6.81170974261856,-1.6735283757389292,9.558450621054307,4.696034236818106,98.6289381563594,40.0,-74.0
2026-03-09 15:13:30.306670,5.55682433356077,6.746008534430325,0.277732515949188,0.3373841111418132,2.931862402597191,98.62477079513252,40.0,-74.0
2026-03-09 15:13:30.406670,5.5703952394243235,6.5096995223954615,-0.03307522420404722,10.775030329260593,5.8039002183035215,98.62060343390566,40.0,-74.0
2026-03-09 15:13:30.506670,5.363168246645592,6.5910536839295135,-0.16444314656333117,6.310628398060941,4.929354647603411,98.61643607267878,40.0,-74.0
2026-03-09 15:13:30.606670,5.605565131945149,6.681840966123471,-4.3816100591357605,4.677748949315072,-6.267755879696292,98.6122687114519,40.0,-74.0
2026-03-09 15:13:30.706670,5.502211623351252,6.843650916006701,0.12231488017274009,4.671271633991007,-2.0309883717361226,98.60810135022504,40.0,-74.0
2026-03-09 15:13:30.806670,5.599134556553794,6.841840802151101,1.5453388958248404,5.103347448413401,-1.4857096891271886,98.60393398899816,40.0,-74.0
2026-03-09 15:13:30.906670,5.480462990367308,6.719789274261966,4.912882127612905,-1.3039559215893617,4.9111377894636075,98.59976662777129,40.0,-74.0
2026-03-09 15:13:31.006670,5.617080009718194,6.699899377908378,-0.13884633418982018,3.6811182597394483,-2.4662489304359436,98.59559926654443,40.0,-74.0
2026-03-09 15:13:31.106670,5.601613520701538,6.816817578062171,-1.3210191050769249,1.5985903088618434,-0.39423471222102746,98.59143190531755,40.0,-74.0
2026-03-09 15:13:31.206670,5.677013530600968,6.815013407136534,0.5343416009565004,3.7382370646899856,8.0148172068287,98.58726454409069,40.0,-74.0
2026-03-09 15:13:31.306670,5.759221317684393,6.737538308931971,4.372615575876813,4.732724800457595,-2.3672274381133644,98.58309718286381,40.0,-74.0
2026-03-09 15:13:31.406670,5.636883663231768,6.892247068709183,2.236187072584742,4.312966786655188,-5.896592306005246,98.57892982163693,40.0,-74.0
2026-03-09 15:13:31.506670,5.612255861969611,7.133086125202505,1.0847787517055232,-1.1638653051778056,-3.45879404580259,98.57476246041007,40.0,-74.0
2026-03-09 15:13:31.606670,5.606837791714568,6.959761918995195,0.21037202757416995,3.4518835131117047,6.117900909239279,98.5705950991832,40.0,-74.0
2026-03-09 15:13:31.706670,5.6558417284747415,6.891899562498119,-4.828385432471635,6.436437578167742,3.017818037707881,98.56642773795633,40.0,-74.0
2026-03-09 15:13:31.806670,5.652201331981849,7.11827241320848,-1.2869539847206979,5.146438685961342,2.788715438804953,98.56226037672945,40.0,-74.0
2026-03-09 15:13:31.906670,5.896336510460657,6.887012768731186,1.3252529511549385,7.4155275014147355,1.0010437633220983,98.55809301550258,40.0,-74.0
2026-03-09 15:13:32.006670,5.845429262890543,7.093454085051752,2.1497120118611126,6.91689675110667,1.4036876408703338,98.55392565427572,40.0,-74.0
2026-03-09 15:13:32.106670,5.61187094936771,7.042062103777004,-2.0176712914139525,2.2057674333660957,1.5250731839084253,98.54975829304884,40.0,-74.0
2026-03-09 15:13:32.206670,5.960683821053368,7.135350848930066,-0.45483414201573624,5.819625348200209,-5.060661070287085,98.54559093182198,40.0,-74.0
2026-03-09 15:13:32.306670,5.8235036024259585,7.032263617942659,0.2991016845419248,4.23986585183714,0.15771923257358927,98.5414235705951,40.0,-74.0
2026-03-09 15:13:32.406670,6.043829853600138,7.184795612589912,-1.970034900423095,2.7436456246536043,2.1278067771997526,98.53725620936822,40.0,-74.0
2026-03-09 15:13:32.506670,5.84517983804536,7.053934352741186,-1.8769526718820755,6.571274739114036,0.032346536846906054,98.53308884814136,40.0,-74.0
2026-03-09 15:13:32.606670,5.773949195010671,6.982382532797234,-0.06003470075479238,4.517037033558315,0.8735494958756461,98.52892148691448,40.0,-74.0
2026-03-09 15:13:32.706670,6.033455082677692,7.1637818701797835,1.954366751290067,4.261843010081144,2.5796900522861,98.52475412568761,40.0,-74.0
2026-03-09 15:13:32.806670,5.933750478391884,7.2770456221625155,1.9260985199422096,8.024349425971788,-1.1961003595650397,98.52058676446075,40.0,-74.0
2026-03-09 15:13:32.906670,5.92169214847122,7.152599393467052,-0.4087579723044713,13.615702286912388,-1.4788480411814595,98.51641940323387,40.0,-74.0
2026-03-09 15:13:33.006670,5.842232154232821,7.077444110766552,0.756801437029643,7.871322962779653,9.200176406830263,98.512252042007,40.0,-74.0
2026-03-09 15:13:33.106670,5.8921401612388,7.207508646614375,-1.4391588747570871,1.2388454143947427,0.4411100161437545,98.50808468078013,40.0,-74.0
2026-03-09 15:13:33.206670,6.001086499457537,7.160993341348753,3.266958469761752,4.169797414019848,-4.507572566444304,98.50391731955325,40.0,-74.0
2026-03-09 15:13:33.306670,5.932642229942492,7.17428057166155,1.198064591013245,2.5676769936880546,5.5483384332275545,98.49974995832639,40.0,-74.0
2026-03-09 15:13:33.406670,6.041245773751382,7.280917193878419,3.907098058876984,2.321312383449872,1.9761675631214408,98.49558259709951,40.0,-74.0
2026-03-09 15:13:33.506670,6.148630372049876,7.302597603284502,0.8030110630725398,3.7884865308969573,-3.177060698587671,98.49141523587265,40.0,-74.0
2026-03-09 15:13:33.606670,5.913885655143691,7.313002649913332,-2.044282592601615,7.713775862342885,-8.818828742319493,98.48724787464577,40.0,-74.0
2026-03-09 15:13:33.706670,6.22931920834447,7.249987198408626,-0.3672454287483392,6.1701882028783075,-1.365247741601134,98.4830805134189,40.0,-74.0
2026-03-09 15:13:33.806670,6.192303661615539,7.272042077608616,0.03615285978410615,10.264600048658147,1.5157606749587063,98.47891315219204,40.0,-74.0
2026-03-09 15:13:33.906670,6.241273083745465,7.301883751428229,-0.9667947517595971,7.87082771410155,0.5191221212490195,98.47474579096516,40.0,-74.0
2026-03-09 15:13:34.006670,6.14452180925396,7.429684349864508,-0.8021989184132334,7.107349836513458,-3.255314599213006,98.4705784297383,40.0,-74.0
2026-03-09 15:13:34.106670,5.975767470463391,7.338679144088451,0.6524651509809204,-2.448728902790152,-10.246971785053574,98.46641106851142,40.0,-74.0
2026-03-09 15:13:34.206670,6.190515040544274,7.194019782768369,-1.9495320372018135,6.715960792497322,-3.8406250855676336,98.46224370728454,40.0,-74.0
2026-03-09 15:13:34.306670,6.444332697235082,7.137243848117793,-0.5041688871152239,6.962787436320835,-1.276169555608371,98.45807634605768,40.0,-74.0
2026-03-09 15:13:34.406670,6.232391061805475,7.4576653840070435,-2.429734331466605,4.7151801748855515,-2.54541133416148,98.4539089848308,40.0,-74.0
2026-03-09 15:13:34.506670,6.2030443212962805,7.399147817425626,1.868051413872442,5.530588409123622,5.690178454680022,98.44974162360393,40.0,-74.0
2026-03-09 15:13:34.606670,6.182633946716706,7.4230397571652365,-0.1465859029180449,9.709235894397757,-3.099546086651534,98.44557426237706,40.0,-74.0
2026-03-09 15:13:34.706670,6.219941975575817,7.517516533970493,-1.1932881162611353,4.3115268464851555,-2.1146680739327572,98.44140690115019,40.0,-74.0
2026-03-09 15:13:34.806670,6.203162843658329,7.523548110153862,-0.2556726526018218,3.860456858258409,-1.8639731316692292,98.43723953992333,40.0,-74.0
2026-03-09 15:13:34.906670,6.4448521251411295,7.4020660889513055,0.20639232087986192,6.05370188473478,-3.0578845070023135,98.43307217869645,40.0,-74.0
2026-03-09 15:13:35.006670,6.401179517846013,7.587025764491658,-2.5664142219936417,10.124758059088169,-0.9936971218119232,98.42890481746957,40.0,-74.0
2026-03-09 15:13:35.106670,6.413604617438561,7.493711754781502,-2.7004087088621964,5.379638178786284,6.395690062662508,98.42473745624271,40.0,-74.0
2026-03-09 15:13:35.206670,6.27312473746171,7.700382349366538,-3.500394080689656,3.788273051778969,-1.7319415177167172,98.42057009501583,40.0,-74.0
2026-03-09 15:13:35.306670,6.209539766443978,7.459612931446227,-0.5592212206423682,4.21084221705828,-6.844196487455657,98.41640273378897,40.0,-74.0
2026-03-09 15:13:35.406670,6.218363022421718,7.493541126962135,1.5475244247889033,2.202585580827395,6.399170950861807,98.4122353725621,40.0,-74.0
2026-03-09 15:13:35.506670,6.335283433094802,7.700190248156873,-0.7970945794344828,6.1837226514443815,4.6364501608478665,98.40806801133522,40.0,-74.0
2026-03-09 15:13:35.606670,6.494287784128725,7.721929707420528,0.965311978565511,5.221219299915678,-5.736770203847813,98.40390065010835,40.0,-74.0
2026-03-09 15:13:35.706670,6.386752749684475,7.698669082918099,0.599034270466652,0.20564943734288724,-2.2945877834585264,98.39973328888148,40.0,-74.0
2026-03-09 15:13:35.806670,6.336754032921446,7.719805059794582,0.7533548185152295,4.775908375160872,4.3222143028867945,98.39556592765462,40.0,-74.0
2026-03-09 15:13:35.906670,6.593661086600286,7.71580407772598,-2.338171594169031,3.7861621619968844,-5.063198976818225,98.39139856642774,40.0,-74.0
2026-03-09 15:13:36.006670,6.371549427828886,7.924945725122326,-0.7792734118147732,4.488672842535743,-5.265396336694836,98.38723120520086,40.0,-74.0
2026-03-09 15:13:36.106670,6.607773578253691,7.790341674546084,-0.17724110341553972,5.495243536612179,-4.347615189616545,98.383063843974,40.0,-74.0
2026-03-09 15:13:36.206670,6.399114080495126,7.719103170713704,0.7090521978740639,-2.3463070844605345,0.9338602179488024,98.37889648274712,40.0,-74.0
2026-03-09 15:13:36.306670,6.477200945756944,7.794716668752731,-0.1305843735722407,8.661446972086427,9.391122784558823,98.37472912152025,40.0,-74.0
2026-03-09 15:13:36.406670,6.690580520826318,7.784566594052962,1.2663898703384464,8.114807717004823,-0.09659508601966693,98.37056176029338,40.0,-74.0
2026-03-09 15:13:36.506670,6.6681874960124095,7.931505140775015,-3.158191862245549,7.45796741336836,-10.009089731129322,98.36639439906651,40.0,-74.0
2026-03-09 15:13:36.606670,6.779140718829868,8.052757118703582,1.0463125916356555,6.83347716949451,4.275234953717638,98.36222703783965,40.0,-74.0
2026-03-09 15:13:36.706670,6.428009384446427,7.691744013056491,-0.6401840753631421,9.429860429873756,4.5750585210540144,98.35805967661277,40.0,-74.0
2026-03-09 15:13:36.806670,6.725667535080422,7.909903289148718,-0.1673732110292261,0.5182438532118566,6.466255292842576,98.35389231538589,40.0,-74.0
2026-03-09 15:13:36.906670,6.609614344024733,7.874911635121483,-0.9518864392966265,5.955328430814644,-2.5154307118451014,98.34972495415903,40.0,-74.0
2026-03-09 15:13:37.006670,6.65073963456857,7.858716996629395,1.7572888411148901,11.108346258718157,-2.888192828572116,98.34555759293215,40.0,-74.0
2026-03-09 15:13:37.106670,6.712832259387478,8.127467627278794,2.7278574428573843,7.176425412921446,1.9402047732279506,98.34139023170529,40.0,-74.0
2026-03-09 15:13:37.206670,6.630497659187835,7.889631407936365,-1.7364113571616249,2.7231836012377046,-3.0700455828028352,98.33722287047841,40.0,-74.0
2026-03-09 15:13:37.306670,6.741023638011182,7.977508279998113,-1.0343233961520766,3.566963417325656,4.713634226678228,98.33305550925154,40.0,-74.0
