timestamp,altitude_m,speed_mps,roll_deg,pitch_deg,yaw_deg,battery_percent,gps_lat,gps_lon
1773096233616,0.0,0.0,-0.5620505263984139,5.070396112697011,0.0,95.0,37.7749,-122.41929999999999
1773096233716,0.8,0.8,0.07676356244909043,5.854748933600274,0.44999750001249994,95.08710722783822,37.77491035051626,-122.41930031599618
1773096233816,1.6,1.6,0.8115410460516921,4.166614484082383,0.8999800003999963,95.17396461188738,37.77492060128227,-122.41930162616762
1773096233916,2.4000000000000004,2.4000000000000004,0.7137063212515886,5.039026662977564,1.3499325030374347,95.26032293283778,37.77493065354444,-122.4193039155892
1773096234016,3.2,3.2,2.5468799614577478,4.282038252830974,1.7998400127995122,95.34593421877757,37.7749404105326,-122.41930715955141
1773096234116,4.0,4.0,-0.5714891512554354,5.461444422422249,2.249687539060175,95.43055236499335,37.77494977842682,-122.41931132380734
1773096234216,4.800000000000001,4.800000000000001,1.4226892205047283,4.6710245302107625,2.6994600971916687,95.51393374910384,37.77495866729489,-122.41931636491472
1773096234316,5.6000000000000005,5.6000000000000005,1.2768019738297023,5.367106659887974,3.149142710062992,95.59583783998893,37.77496699199087,-122.4193222306702
1773096234416,6.4,6.4,1.3941957492363326,4.948213830094947,3.5987204095375906,95.6760277989922,37.77497467300582,-122.41932886063069
1773096234516,7.2,7.2,2.3588313326269477,5.894745864861001,4.048178237970165,95.75427107189421,37.774981637262286,-122.4193361867175
1773096234616,8.0,8.0,0.8703794360460657,4.897823087425307,4.497501249702422,95.83033997017701,37.7749878188444,-122.41934413389646
1773096234716,8.8,8.8,2.3574045713827445,4.697937606070768,4.946674512557622,95.90401224012678,37.77499315965652,-122.4193526209276
1773096234816,9.600000000000001,9.600000000000001,1.3997982789686123,5.351225290435273,5.39568310933379,95.97507161835239,37.7749976100037,-122.419361561177
1773096234916,10.4,10.4,3.4956655504773098,5.055433174317679,5.844512139295423,96.04330837233127,37.77500112908823,-122.41937086348229
1773096235016,11.200000000000001,11.200000000000001,2.2184609161039694,4.697932061673537,6.2931467196635476,96.10851982463143,37.77500368541728,-122.41938043306357
1773096235116,12.0,12.0,5.133378017500771,4.758472820846418,6.741571987103988,96.17051085949957,37.775005257117535,-122.41939017247039
1773096235216,12.8,12.8,1.938577521582646,5.608599751262584,7.1897730992136895,96.22909441054881,37.775005832153774,-122.41939998255549
1773096235316,13.600000000000001,13.600000000000001,2.506846682599862,5.254434622088494,7.63773523600494,96.28409192832721,37.775005408449104,-122.4194097634654
1773096235416,14.4,14.4,3.6825996741738867,4.990701502735183,8.085443601387363,96.33533382659846,37.775003993905734,-122.41941941563815
1773096235516,15.200000000000001,15.200000000000001,5.267599161666745,4.9555977134011995,8.532883424647508,96.3826599062191,37.77500160632601,-122.41942884079806
1773096235616,16.0,16.0,3.435661995896432,5.469419106143446,8.980039961925918,96.42591975555301,37.774998273234516,-122.41943794293773
1773096235716,16.8,16.8,3.9020410134935983,5.4143917417689424,9.426898497691493,96.46497312642211,37.77499403160309,-122.41944662927725
1773096235816,17.6,17.6,2.701001028392966,5.356927202979624,9.87344434621304,96.49969028465381,37.7749889274814,-122.41945481119122
1773096235916,18.400000000000002,18.400000000000002,4.051012189777971,5.196249852936162,10.319662853027825,96.52995233434883,37.774983015536826,-122.41946240509432
1773096236016,19.200000000000003,19.200000000000003,5.5296416840847975,5.047445928939228,10.765539396407018,96.55565151505911,37.774976358508255,-122.41946933327645
1773096236116,20.0,20.0,5.0360463017112655,4.6462016126486425,11.211059388817844,96.57669147113269,37.7749690265792,-122.41947552467916
1773096236216,20.8,20.8,4.044419758043703,4.9566814302290725,11.656208278382326,96.59298749255277,37.77496109667656,-122.41948091560563
1773096236316,21.6,21.6,6.343622278694986,4.629477973081078,12.100971550332467,96.60446672666856,37.774952651702,-122.41948545035721
1773096236416,22.400000000000002,22.400000000000002,5.0779117037246815,5.6015175610682535,12.545334728461707,96.61106836028902,37.77494377970358,-122.41948908178978
1773096236516,23.200000000000003,23.200000000000003,6.431871657146484,4.86990535642515,12.989283376572534,96.61274377168412,37.774934572996074,-122.41949177178493
1773096236616,24.0,24.0,4.966894932826831,4.603802993885758,13.432803099920093,96.60945665211392,37.774925127238554,-122.41949349163079
1773096236716,24.8,24.8,3.7662010043582357,5.014083123761424,13.875879546651651,96.6011830965814,37.77491554047859,-122.41949422230886
1773096236816,25.6,25.6,5.340187540260944,3.9673170756838783,14.318498409241766,96.58791166358255,37.77490591217259,-122.41949395468411
1773096236916,26.400000000000002,26.400000000000002,6.002864623631053,4.039591925805793,14.760645425923027,96.56964340370423,37.77489634219211,-122.41949268959623
1773096237016,27.200000000000003,27.200000000000003,5.502617577652154,5.018625095560591,15.202306382112216,96.5463918569982,37.77488692982591,-122.41949043785121
1773096237116,28.0,28.0,5.671811385026996,5.179870199436147,15.643467111831772,96.518183019138,37.77487777278794,-122.41948722011337
1773096237216,28.8,28.8,6.275719412394304,4.454198668848364,16.084113499126346,96.48505527644338,37.774868966240966,-122.41948306669899
1773096237316,29.6,29.6,7.402149161324554,5.414966937928153,16.52423147947443,96.44705930993445,37.7748606018458,-122.41947801727322
1773096237416,30.400000000000002,30.400000000000002,7.797444898722718,5.435742987465655,16.96380704119474,96.40425796865553,37.774852766845385,-122.41947212045395
1773096237516,31.200000000000003,31.200000000000003,5.68106030243286,5.342783792132134,17.40282622684742,96.3567261125853,37.77484554319315,-122.41946543332587
1773096237616,32.0,32.0,6.123340001846441,5.154205172101368,17.841275134629758,96.30455042552579,37.77483900673413,-122.41945802087025
1773096237716,32.800000000000004,32.800000000000004,6.170905016812306,4.916885482674429,18.279139919766344,96.24782919843804,37.77483322644715,-122.41944995531553
1773096237816,33.6,33.6,7.395574993124937,5.572217462065175,18.71640679589355,96.1866720837659,37.77482826375561,-122.41944131541571
1773096237916,34.4,34.4,8.638317798843369,6.014344793340218,19.15306203643816,96.12119982136201,37.774824171913764,-122.4194321856635
1773096238016,35.2,35.2,6.351284084403849,5.390712291871596,19.589091975989994,96.05154393670105,37.77482099547464,-122.41942265544597
1773096238116,36.0,36.0,7.825675781453201,4.667720848301768,20.024483011668455,95.97784641213458,37.774818769844856,-122.41941281815163
1773096238216,36.800000000000004,36.800000000000004,8.136990023331515,4.239388416189408,20.459221604482796,95.90025933200904,37.77481752093085,-122.41940277023708
1773096238316,37.6,37.6,7.978952438370976,6.36251945556651,20.893294280686025,95.81894450253415,37.77481726488005,-122.41939261026344
1773096238416,38.400000000000006,38.400000000000006,7.575911966178735,5.2969691171195485,21.32668763312224,95.73407304735161,37.77481800791951,-122.41938243791145
1773096238516,39.2,39.2,7.126900456779311,4.945873809273953,21.759388322567368,95.64582497981517,37.77481974629372,-122.41937235298556
1773096238616,40.0,40.0,7.233923422347637,5.0058980630129275,22.191383079063044,95.55438875305094,37.77482246630211,-122.41936245441667
1773096238716,40.800000000000004,40.800000000000004,7.838993912289557,5.548918064624423,22.622658703243612,95.45996078892273,37.77482614443594,-122.41935283927364
1773096238816,41.6,41.6,8.087484622671415,5.813095509886256,23.053202067656052,95.36274498707968,37.774830747613194,-122.41934360179349
1773096238916,42.400000000000006,42.400000000000006,6.6350322098826044,5.075629405788527,23.483000118072702,95.26295221531338,37.77483623350913,-122.4193348324397
1773096239016,43.2,43.2,6.9184603614800215,5.142589190320198,23.912039874796697,95.16079978249813,37.77484255097919,-122.41932661699843
1773096239116,44.0,44.0,7.94121408253767,5.171667128925191,24.34030843395989,95.056510895432,37.77484964056998,-122.4193190357213
1773096239216,44.800000000000004,44.800000000000004,9.615897381461417,4.81302654107249,24.767792968813254,94.950314100936,37.77485743511334,-122.41931216252358
1773096239316,45.6,45.6,7.699430149751587,5.2458374252403415,25.194480731009538,94.84244271460615,37.774865860397455,-122.41930606424565
1773096239416,46.400000000000006,46.400000000000006,7.512235530173314,5.01404540368951,25.620359051878104,94.73313423764588,37.77487483590836,-122.41930079998515
1773096239516,47.2,47.2,7.951374747598516,5.475691171332734,26.045415343691758,94.62262976323683,37.77488427563442,-122.41929642050647
1773096239616,48.0,48.0,9.026090569408893,5.140755017509183,26.46963710092553,94.51117337393137,37.77489408892568,-122.41929296773358
1773096239716,48.800000000000004,48.800000000000004,6.272594755629619,5.3066181753812875,26.893011901507222,94.39901153157338,37.77490418139966,-122.41929047433112
1773096239816,49.6,49.6,9.184101817999153,4.070167449227489,27.315527408059573,94.28639246127194,37.77491445588439,-122.41928896337795
1773096239916,50.400000000000006,50.400000000000006,8.267760435216253,5.611558775911194,27.73717136913404,94.17356553096792,37.77492481338931,-122.41928844813673
1773096240016,51.2,51.2,6.928429412982792,4.027690889169225,28.157931620435882,94.06078062814393,37.774935154094344,-122.41928893192119
1773096240116,52.0,52.0,6.544214567499881,4.925561332026174,28.577796086040593,93.94828753523574,37.77494537834726,-122.4192904080632
1773096240216,52.800000000000004,52.800000000000004,8.03145620065756,5.4246807151952705,28.996752779601508,93.8363353053063,37.774955387659396,-122.41929285997928
1773096240316,53.6,53.6,6.33311301695601,6.370083156902016,29.414789805548395,93.72517163954288,37.77496508568969,-122.41929626133636
1773096240416,54.400000000000006,54.400000000000006,7.975943713740827,4.866366401618225,29.831895360277027,93.61504226813285,37.774974379207336,-122.41930057631484
1773096240516,55.2,55.2,7.263703428981457,4.963843818190528,30.248057733329517,93.50619033606652,37.77498317902325,-122.41930575996658
1773096240616,56.0,56.0,8.326125046324199,5.139602487909162,30.663265308565364,93.398855795401,37.774991400881284,-122.41931175866387
1773096240716,56.800000000000004,56.800000000000004,7.056199265430958,4.865534744360932,31.07750656532305,93.29327480550518,37.77499896630002,-122.41931851063535
1773096240816,57.6,57.6,7.939333235826751,4.652677244235466,31.490770079572094,93.18967914278426,37.775005803356976,-122.41932594658326
1773096240916,58.400000000000006,58.400000000000006,8.101914806706388,5.690774353731451,31.903044525055467,93.08829562135942,37.77501184740724,-122.41933399037566
1773096241016,59.2,59.2,7.860289120957629,5.714427192137865,32.314318674422175,92.9893455261507,37.775017041729356,-122.41934255980736
1773096241116,60.0,60.0,6.58720117679872,5.243880516923851,32.72458140035001,92.89304405977985,37.775021338092046,-122.41935156742103
1773096241216,60.800000000000004,60.800000000000004,7.893120546881656,4.916841904116174,33.13382167665827,92.79959980467598,37.77502469723616,-122.41936092138127
1773096241316,61.6,61.6,7.272154381500266,4.4811698975411165,33.54202857941035,92.70921420172793,37.775027089266935,-122.41937052639202
1773096241416,62.400000000000006,62.400000000000006,7.230955194322753,5.26575490028855,33.949191288006155,92.62208104678719,37.775028493952675,-122.41938028464887
1773096241516,63.2,63.2,7.587289335183522,5.27712063012655,34.35529908626412,92.53838600627897,37.77502890092691,-122.41939009681619
1773096241616,64.0,64.0,8.5623463535421,5.31630464477843,34.76034136349284,92.458306153133,37.775028309791985,-122.41939986301972
1773096241716,64.8,64.8,7.470764450604682,4.903083496712197,35.16430761555214,92.38200952419332,37.775026730123,-122.41940948384442
1773096241816,65.60000000000001,65.60000000000001,8.868074056632151,5.056169829269961,35.567187445903436,92.30965470021376,37.775024181372174,-122.41941886132784
1773096241916,66.4,66.4,5.8189413656273885,5.101624288819784,35.96897056664944,92.24139040948855,37.775020692674474,-122.41942789993895
1773096242016,67.2,67.2,8.44065359232507,5.634230225096887,36.36964679956289,92.17735515610913,37.7750163025565,-122.41943650753257
1773096242116,68.0,68.0,5.300759048535787,4.964644041395059,36.76920607710439,92.11767687377599,37.77501105855154,-122.41944459627013
1773096242216,68.8,68.8,7.163133356476445,4.404277321456074,37.167638443429155,92.06247260603111,37.77500501672466,-122.41945208349729
1773096242316,69.60000000000001,69.60000000000001,7.526142061162624,5.788157417569644,37.56493405538257,92.01184821370997,37.77499824111247,-122.41945889256982
1773096242416,70.4,70.4,6.636031945047477,5.296023665922726,37.96108318348454,91.9658981103447,37.77499080308334,-122.41946495361937
1773096242516,71.2,71.2,4.939729170100497,5.558680799010285,38.35607621290236,91.92470502617931,37.77498278062429,-122.4194702042516
1773096242616,72.0,72.0,6.8688674835735775,5.398566598418621,38.74990364441225,91.88833980138726,37.774974257561766,-122.41947459016957
1773096242716,72.8,72.8,5.659668899410087,5.918214412855302,39.142556095349256,91.85686120900785,37.77496532272407,-122.41947806571629
1773096242816,73.60000000000001,73.60000000000001,5.568473349036723,5.231809527745835,39.53402430054549,91.83031580804425,37.77495606905383,-122.41948059433093
1773096242916,74.4,74.4,6.111422466144042,5.483703738928968,39.92429911325666,91.80873782709028,37.77494659267936,-122.41948214891403
1773096243016,75.2,75.2,6.44704016513605,5.284348371932617,40.31337150607671,91.7921490787767,37.77493699195415,-122.4194827120984
1773096243116,76.0,76.0,4.481006410257355,4.793408834785421,40.701232571840606,91.78055890525101,37.77492736647415,-122.41948227642251
1773096243216,76.80000000000001,76.80000000000001,6.84260110860147,6.183065540814548,41.087873524514976,91.77396415482694,37.77491781608267,-122.41948084440519
1773096243316,77.60000000000001,77.60000000000001,5.42003900866244,5.344580503293431,41.47328570007675,91.77234918986206,37.77490843987274,-122.41947842852028
1773096243416,78.4,78.4,5.613351072782846,4.821680092381514,41.857460557379554,91.77568592584367,37.77489933519704,-122.41947505107223
1773096243516,79.2,79.2,4.767403070448298,4.86609360933718,42.240389679007805,91.78393390158557,37.77489059669519,-122.41947074397297
1773096243616,80.0,80.0,4.444734867409734,5.084099122341387,42.62206477211845,91.79704038035979,37.774882315348066,-122.41946554842333
1773096243716,80.80000000000001,80.80000000000001,6.493802007899715,5.040315611059067,43.00247766927023,91.81494048171112,37.77487457756886,-122.41945951450114
1773096243816,81.60000000000001,81.60000000000001,3.1428118345389473,4.586103889214429,43.38162032924044,91.83755734362433,37.77486746433957,-122.41945270066103
1773096243916,82.4,82.4,3.6690646931211894,6.017243693318395,43.75948483782905,91.86480231463925,37.77486105040195,-122.4194451731503
1773096244016,83.2,83.2,4.436953462802442,4.691102447680879,44.136063408650074,91.89657517543321,37.774855403510614,-122.41943700534698
1773096244116,84.0,84.0,3.119489160837274,5.687197522556318,44.51134838391025,91.93276438931719,37.77485058375611,-122.41942827702674
1773096244216,84.80000000000001,84.80000000000001,3.364764754110604,5.3455770662033055,44.88533223517479,91.97324738101942,37.77484664296455,-122.41941907356572
1773096244316,85.60000000000001,85.60000000000001,6.098971679995991,5.753602704936523,45.25800756412023,92.01789084305977,37.77484362417967,-122.41940948508753
1773096244416,86.4,86.4,4.6114822810498755,5.055364171515809,45.62936710327421,92.06655106894897,37.774841561232876,-122.41939960556269
1773096244516,87.2,87.2,1.8329325541593253,6.551579374564266,45.99940371674231,92.11907431238002,37.774840478405146,-122.41938953186985
1773096244616,88.0,88.0,1.2460823617627312,5.789206096874671,46.36811040092153,92.17529717151389,37.774840390184416,-122.41937936282767
1773096244716,88.80000000000001,88.80000000000001,3.995857235813106,4.817906537684204,46.73548028520071,92.23504699739901,37.774841301120844,-122.41936919820748
1773096244816,89.60000000000001,89.60000000000001,3.2438313304680824,5.499817943303498,47.10150663264758,92.29814232550375,37.77484320578134,-122.41935913773649
1773096244916,90.4,90.4,2.1840795984171177,5.494875662498491,47.466182840682386,92.36439332928323,37.774846088803855,-122.41934928010124
1773096245016,91.2,91.2,4.302233050174184,5.674131146257934,47.82950244173824,92.43360229464685,37.774849925050866,-122.41933972196165
1773096245116,92.0,92.0,3.4038626280644744,6.8770932290330204,48.19145910390782,92.50556411414045,37.77485467986056,-122.4193305569851
1773096245216,92.80000000000001,92.80000000000001,1.4759906716122784,5.4447432459939655,48.5520466315765,92.58006679960832,37.77486030939313,-122.41932187491071
1773096245316,93.60000000000001,93.60000000000001,0.6002082367321502,6.342924534047878,48.911258966042034,92.65689201205298,37.774866761068814,-122.41931376065251
1773096245416,94.4,94.4,2.7872594130355237,5.735387931706764,49.2690901861203,92.73581560736909,37.774873974093325,-122.4193062934512
1773096245516,95.2,95.2,2.4972773097287995,4.998273660981089,49.625534508737495,92.81660819658694,37.774881880065166,-122.4192995460822
1773096245616,96.0,96.0,1.5267800026085965,5.428760382720254,49.980586289508395,92.89903571922542,37.774890403659185,-122.41929358412862
1773096245716,96.80000000000001,96.80000000000001,1.7231746300539004,5.708846761792621,50.33424002330079,92.98286002832135,37.77489946337913,-122.41928846532606
1773096245816,97.60000000000001,97.60000000000001,1.4956703671189209,5.262499297025202,50.686490344786016,93.06783948567282,37.77490897237194,-122.4192842389855
1773096245916,98.4,98.4,0.6470697304257226,5.650605726412551,51.03733202897546,93.15372956580883,37.77491883929562,-122.41928094550083
1773096246016,99.2,99.2,-0.6759064546045975,5.706914330376933,51.38675999174308,93.24028346717573,37.77492896923181,-122.41927861594509
1773096246116,100.0,100.0,0.10602453583201403,4.736839646805724,51.734769290333794,93.32725272901246,37.774939264634206,-122.41927727176011
1773096246216,100.80000000000001,100.80000000000001,0.5155328664547354,5.730267561522482,52.08135512385773,93.41438785237314,37.77494962630326,-122.41927692454217
1773096246316,101.60000000000001,101.60000000000001,-0.973411326070527,6.244764374436837,52.42651283377039,93.50143892374442,37.774959954377266,-122.41927757592626
1773096246416,102.4,102.4,-1.6655345803310673,4.956652319780546,52.77023790433837,93.58815623969915,37.77497014933022,-122.41927921756957
1773096246516,103.2,103.2,0.39728261025549116,6.159421604038155,53.11252596309109,93.67429093102494,37.77498011296622,-122.41928183123503
1773096246616,104.0,104.0,-1.697018553091307,5.826484122416122,53.4533727812579,93.75959558476751,37.77498974940058,-122.4192853889734
1773096246716,104.80000000000001,104.80000000000001,-2.70014627471785,5.488357231465823,53.792774274191004,93.8438248626343,37.77499896601793,-122.4192898534026
1773096246816,105.60000000000001,105.60000000000001,-0.6137324240874855,5.3644657269949905,54.13072650177398,93.92673611421236,37.77500767439755,-122.4192951780812
1773096246916,106.4,106.4,-0.7857232092280421,5.008204070180914,54.467225668815665,94.00808998346807,37.77501579119689,-122.41930130797239
1773096247016,107.2,107.2,-1.1374347511214833,4.605582759969971,54.80226812542979,94.08765100701252,37.77502323898426,-122.41930817999402
1773096247116,108.0,108.0,-1.8828654658513355,5.028068770261022,55.13585036739988,94.16518820263742,37.77502994701251,-122.41931572364874
1773096247216,108.80000000000001,108.80000000000001,-1.5343242718211731,5.531916223570756,55.46796903652974,94.24047564665027,37.775035851925935,-122.41932386172853
1773096247316,109.60000000000001,109.60000000000001,-0.5616430175017748,6.496207038145506,55.79862092097922,94.31329303856593,37.77504089839327,-122.41933251108603
1773096247416,110.4,110.4,-2.325797872783646,5.514128616472518,56.127802955585395,94.38342625174317,37.775045039660576,-122.41934158346538
1773096247516,111.2,111.2,-1.7845521309293115,5.872880355441677,56.45551222216915,94.45066786858968,37.775048238018364,-122.41935098638403
1773096247616,112.0,112.0,-3.5575390830089693,5.8650343871654735,56.781745949826906,94.51481769899807,37.77505046517839,-122.41936062405676
1773096247716,112.80000000000001,112.80000000000001,-3.2351768151473173,5.085034659184543,57.10650151520775,94.57568328071689,37.77505170255628,-122.41937039835283
1773096247816,113.60000000000001,113.60000000000001,-3.052923749164628,5.976968268543847,57.4297764427758,94.63308036040597,37.775051941457264,-122.41938020977629
1773096247916,114.4,114.4,-3.5983205159592755,6.129537224564624,57.75156840505767,94.6868333541739,37.775051183163015,-122.41938995846036
1773096248016,115.2,115.2,-4.710534819190547,4.666109164891625,58.07187522287529,94.73677578644623,37.775049438918835,-122.41939954516502
1773096248116,116.0,116.0,-3.7159241683038973,4.53873311974191,58.39069486556383,94.7827507060678,37.77504672982133,-122.41940887226879
1773096248216,116.80000000000001,116.80000000000001,-2.6928856813933315,5.202619856403703,58.70802545117467,94.82461107859878,37.77504308660758,-122.41941784474395
1773096248316,117.60000000000001,117.60000000000001,-3.2106792491406293,5.55383689068555,59.02386524666372,94.86222015382428,37.77503854934807,-122.41942637110618
1773096248416,118.4,118.4,-3.2684538370982277,5.586915695279969,59.3382126680646,94.89545180755863,37.77503316704628,-122.41943436432851
1773096248516,119.2,119.2,-3.781111073526545,5.444367753349324,59.65106628064714,94.92419085689018,37.77502699714909,-122.419441742711
1773096248616,120.0,120.0,-4.967511046151362,6.089487425652432,59.96242479906081,94.94833334807858,37.77502010497275,-122.41944843069692
1773096248716,120.80000000000001,120.80000000000001,-6.781837188965297,6.295296620805585,60.27228708746322,94.96778681638499,37.77501256305029,-122.41945435962778
1773096248816,121.60000000000001,121.60000000000001,-5.652306680418475,5.563251606493081,60.58065215963374,94.98247051718579,37.7750044504068,-122.41945946842935
1773096248916,122.4,122.4,-3.9379688214386954,5.817094636874277,60.88751917907214,94.99231562779208,37.774995851769816,-122.41946370422178
1773096249016,123.2,123.2,-6.492178356715291,5.369278143016382,61.19288745908218,94.99726541947054,37.77498685672277,-122.41946702284814
1773096249116,124.0,124.0,-4.175466652117938,4.582267660621093,61.49675646284035,94.99727539923576,37.77497755880988,-122.41946938931542
1773096249216,124.80000000000001,124.80000000000001,-5.461113791873929,5.773080018696263,61.79912580344949,94.99231342105948,37.774968054601516,-122.41947077814437
1773096249316,125.60000000000001,125.60000000000001,-4.623225083228524,4.412101392489991,62.09999524397752,94.98235976621896,37.77495844272925,-122.41947117362389
1773096249416,126.4,126.4,-5.819509601713958,4.942799449636891,62.399364697481104,94.96740719258354,37.77494882290044,-122.41947056996815
1773096249516,127.2,127.2,-6.2387187150994645,6.162332995778143,62.69723422701436,94.94746095271609,37.77493929490192,-122.41946897137434
1773096249616,128.0,128.0,-5.293827115717168,6.207369448294377,62.993604045622575,94.92253878074447,37.77492995760298,-122.4194663919807
1773096249716,128.8,128.8,-6.316720162926725,5.894111813207156,63.28847451632085,94.89267084803537,37.77492090796752,-122.41946285572538
1773096249816,129.6,129.6,-6.932747226264796,5.315269385231192,63.581846152057864,94.85789968778161,37.774912240085186,-122.41945839610712
1773096249916,130.4,130.4,-6.372734815908148,4.680882608078067,63.873719615664484,94.81828008869131,37.77490404423129,-122.4194530558506
1773096250016,131.20000000000002,131.20000000000002,-4.707454582192602,5.565312291196979,64.1640957197876,94.77387895804469,37.774896405964775,-122.41944688647955
1773096250116,132.0,132.0,-7.203202983571467,6.676105332790101,64.45297542680879,94.72477515446069,37.77488940527337,-122.41943994780195
1773096250216,132.8,132.8,-6.420411349933759,5.712612941419627,64.74035984874804,94.67105929079145,37.77488311577434,-122.41943230731242
1773096250316,133.6,133.6,-6.9034435545680894,5.927839947815227,65.0262502471527,94.61283350763746,37.77487760397898,-122.41942403951788
1773096250416,134.4,134.4,-9.37906904597285,6.272461798440708,65.31064803297113,94.55021121804914,37.77487292862802,-122.41941522519305
1773096250516,135.20000000000002,135.20000000000002,-8.41240003380993,6.469861200553444,65.59355476641177,94.48331682405342,37.7748691401047,-122.41940595057339
1773096250616,136.0,136.0,-8.003979959600072,4.8708329704591025,65.87497215678702,94.41228540571329,37.77486627993137,-122.41939630649352
1773096250716,136.8,136.8,-7.300465423325078,5.719591219657077,66.15490206234237,94.33726238349814,37.77486438035464,-122.41938638747953
1773096250816,137.6,137.6,-8.055242974809227,5.779701179618863,66.43334649007052,94.25840315480826,37.774863464023134,-122.4193762908046
1773096250916,138.4,138.4,-7.587437588697519,5.16541691531961,66.71030759551074,94.17587270556223,37.77486354376123,-122.41936611551701
1773096251016,139.20000000000002,139.20000000000002,-7.485899873496465,5.3504955828059195,66.9857876825333,94.08984519781812,37.77486462244088,-122.41935596145055
1773096251116,140.0,140.0,-8.636545428699279,5.255312426174557,67.25978920310905,94.000503534459,37.774866692952976,-122.41934592822692
1773096251216,140.8,140.8,-8.02472175335988,5.611905548905946,67.53231475706427,93.908038902031,37.77486973827831,-122.41933611426045
1773096251316,141.6,141.6,-7.037114452894676,5.4844935088407105,67.80336709182069,93.81265029287651,37.77487373165772,-122.41932661577471
1773096251416,142.4,142.4,-7.954310531187879,5.659562165468386,68.07294910212067,93.71454400775697,37.77487863685934,-122.41931752584107
1773096251516,143.20000000000002,143.20000000000002,-6.861228393421447,5.444040051280585,68.34106382973786,93.61393314020837,37.77488440854072,-122.41930893344882
1773096251616,144.0,144.0,-9.347664373130185,5.375866417375429,68.60771446317293,93.51103704391844,37.7748909927018,-122.41930092261593
1773096251716,144.8,144.8,-8.25904186427596,5.808439756186861,68.87290433733473,93.4060807844566,37.774898327224506,-122.41929357154969
1773096251816,145.6,145.6,-8.29956236999825,6.132801004107071,69.13663693320684,93.29929457672733,37.774906342493416,-122.41928695186513
1773096251916,146.4,146.4,-8.221022398187714,5.769470110737223,69.39891587749946,93.19091320955276,37.77491496209129,-122.41928112786967
1773096252016,147.20000000000002,147.20000000000002,-9.499870841039566,5.4094598123946875,69.65974494228672,93.08117545882284,37.77492410356263,-122.41927615592033
1773096252116,148.0,148.0,-8.061401536294676,5.23546552819589,69.9191280446295,92.97032349068009,37.77493367923759,-122.4192720838609
1773096252216,148.8,148.8,-8.733865209502477,5.509580213890955,70.1770692461837,92.8586022562302,37.77494359710785,-122.41926895054368
1773096252316,149.6,149.6,-7.2537688821970105,5.983418909451856,70.43357275279416,92.74625887929201,37.77495376174603,-122.41926678544142
1773096252416,150.4,150.4,-7.609633133947802,5.9451492370033066,70.68864291407392,92.63354203871651,37.77496407525912,-122.41926560835273
1773096252516,151.20000000000002,151.20000000000002,-6.714250590387774,5.161988214207261,70.94228422296945,92.52070134681934,37.77497443826658,-122.41926542920437
1773096252616,152.0,152.0,-8.992845716769432,4.853437539559717,71.19450131531121,92.4079867254799,37.77498475089336,-122.419266247952
1773096252716,152.8,152.8,-8.005511489035323,6.315514372749938,71.44529896935015,92.29564778146688,37.77499491376778,-122.41926805458057
1773096252816,153.60000000000002,153.60000000000002,-7.721453307660238,5.302446846160464,71.69468210527987,92.18393318255129,37.775004829014456,-122.41927082920455
1773096252916,154.4,154.4,-6.160499679032166,5.23551336184203,71.94265578474459,92.07309003596654,37.775014401232205,-122.41927454226644
1773096253016,155.20000000000002,155.20000000000002,-7.410462647440448,4.864472274814035,72.189225210333,91.96336327076908,37.77502353844727,-122.41927915483224
1773096253116,156.0,156.0,-8.400303280578363,5.418860668026655,72.43439572505804,91.85499502564328,37.77503215303232,-122.41928461898034
1773096253216,156.8,156.8,-8.278653405071061,5.355965194898784,72.67817281182252,91.74822404368084,37.775040162581945,-122.41929087828046
1773096253316,157.60000000000002,157.60000000000002,-8.633575105794531,6.567626490313856,72.92056209287092,91.64328507564737,37.775047490736064,-122.41929786835739
1773096253416,158.4,158.4,-7.609339840015662,4.47481581356344,73.16156932922715,91.54040829322777,37.775054067942875,-122.41930551753426
1773096253516,159.20000000000002,159.20000000000002,-7.088512843893296,5.647895513515746,73.40120042011837,91.43981871371687,37.77505983215378,-122.41931374754866
1773096253616,160.0,160.0,-7.376651012683224,5.267115440826901,73.63946140238522,91.3417356375934,37.77506472944338,-122.41932247433466
1773096253716,160.8,160.8,-7.447004125475615,6.029893713537099,73.87635844987801,91.24637210038293,37.77506871454826,-122.41933160886279
1773096253816,161.60000000000002,161.60000000000002,-9.535925785767327,5.944872999082316,74.1118978728394,91.15393434018009,37.77507175131927,-122.41934105802947
1773096253916,162.4,162.4,-9.143517116211848,6.472706123825151,74.3460861172734,91.06462128216072,37.77507381308266,-122.41935072558745
1773096254016,163.20000000000002,163.20000000000002,-6.734320781643191,6.189720014682775,74.57892976430068,90.97862404137248,37.77507488290669,-122.41936051310732
1773096254116,164.0,164.0,-6.863992834138584,5.812954430052104,74.81043552950064,90.89612544504683,37.77507495377069,-122.4193703209611
1773096254216,164.8,164.8,-7.003495744071625,4.461586491331219,75.04061026223961,90.81729957562612,37.775074028635316,-122.41938004931757
1773096254316,165.60000000000002,165.60000000000002,-6.937505449971032,5.100078509451592,75.26946094498616,90.74231133564815,37.775072120412894,-122.4193895991399
1773096254416,166.4,166.4,-6.563256908103902,5.680732219084027,75.49699469261274,90.67131603557571,37.775069251838445,-122.41939887317506
1773096254516,167.20000000000002,167.20000000000002,-8.029841647491187,5.307895022980122,75.72321875168419,90.60445900560131,37.7750654552425,-122.41940777692562
1773096254616,168.0,168.0,-6.279164725689468,5.206393127630459,75.9481404997331,90.5418752323974,37.77506077222808,-122.41941621959391
1773096254716,168.8,168.8,-6.411130471158172,5.829318497921398,76.17176744452213,90.48368902171995,37.77505525325499,-122.41942411498923
1773096254816,169.60000000000002,169.60000000000002,-8.470735090707993,5.481050747023539,76.39410722329313,90.43001368770885,37.775048957135695,-122.41943138238905
1773096254916,170.4,170.4,-7.233928879936641,6.019898085977122,76.61516760200354,90.38095126966151,37.77504195044761,-122.41943794734556
1773096255016,171.20000000000002,171.20000000000002,-7.53798474197905,5.651542640416069,76.83495647454968,90.3365922769878,37.77503430686794,-122.41944374242958
1773096255116,172.0,172.0,-6.59380127996385,5.8457349960136415,77.05348186197746,90.2970154629837,37.775026106437494,-122.41944870790415
1773096255216,172.8,172.8,-5.443606026406717,5.932951000915381,77.27075191168024,90.26228762798893,37.77501743476093,-122.41945279232161
1773096255316,173.60000000000002,173.60000000000002,-5.1446437174572495,5.1842857288279305,77.48677489658411,90.23246345242106,37.77500838215149,-122.4194559530374
1773096255416,174.4,174.4,-2.4897534908821934,5.088847634701546,77.7015592143206,90.20758536010287,37.77499904272853,-122.4194581566364
1773096255516,175.20000000000002,175.20000000000002,-4.881930953727905,6.215549313921306,77.91511338638693,90.18768341222486,37.774989513477166,-122.41945937926661
1773096255616,176.0,176.0,-4.303624228069229,5.992361806531084,78.12744605729385,90.17277523220794,37.77497989327921,-122.41945960687757
1773096255716,176.8,176.8,-5.7250129312527225,6.355424544237147,78.33856599370121,90.1628659616541,37.774970281925185,-122.41945883536073
1773096255816,177.60000000000002,177.60000000000002,-6.994966938493727,6.056421386383046,78.54848208354129,90.15794824749509,37.77496077911726,-122.41945707059048
1773096255916,178.4,178.4,-3.9762424768811506,5.958624232782956,78.75720333513006,90.15800226037112,37.77495148347303,-122.41945432836549
1773096256016,179.20000000000002,179.20000000000002,-5.368165330448794,6.051492563359117,78.9647388762663,90.16299574419415,37.774942491540195,-122.4194506342508
1773096256116,180.0,180.0,-5.1030466584232785,6.188721198273271,79.17109795331882,90.17288409677113,37.774933896831854,-122.41944602332246
1773096256216,180.8,180.8,-5.641433530859404,5.25937667440673,79.37628993030188,90.18761048128633,37.77492578889217,-122.41944053981699
1773096256316,181.60000000000002,181.60000000000002,-5.581983419871341,6.037075356649281,79.5803242879388,90.2071059683638,37.77491825240171,-122.41943423668943
1773096256416,182.4,182.4,-4.848961699334836,6.109028312916295,79.78321062271382,90.23128970835488,37.77491136633127,-122.4194271750842
1773096256516,183.20000000000002,183.20000000000002,-2.4435059171784634,5.376477841560609,79.98495864591257,90.26006913342019,37.77490520315286,-122.41941942372415
1773096256616,184.0,184.0,-3.0413959588082085,5.400038027216736,80.1855781826508,90.2933401889011,37.774899828115636,-122.41941105822401
1773096256716,184.8,184.8,-2.8328805349797,5.834033845448992,80.38507917089206,90.33098759340209,37.77489529859386,-122.41940216033471
1773096256816,185.60000000000002,185.60000000000002,-3.3759362016978183,6.819235371203473,80.58347166045377,90.37288512693426,37.77489166351371,-122.41939281712672
1773096256916,186.4,186.4,-3.6576725972005075,5.727576878374615,80.78076581200229,90.41889594639959,37.7748889628644,-122.4193831201199
1773096257016,187.20000000000002,187.20000000000002,-2.4189363307711353,5.568046423900947,80.9769718960369,90.46887292762733,37.774887227298606,-122.41937316436922
1773096257116,188.0,188.0,-2.336821257268446,5.736306400674852,81.17210029186266,90.52265903310791,37.774886477826215,-122.41936304751489
1773096257216,188.8,188.8,-3.4535093412394433,5.955537686589621,81.36616148655264,90.58008770450488,37.77488672560438,-122.41935286880684
1773096257316,189.60000000000002,189.60000000000002,-2.2874657068367616,6.303470791187976,81.55916607389906,90.64098327896396,37.774887971826104,-122.419342728113
1773096257416,190.4,190.4,-0.8993595426596594,6.411978055584979,81.75112475335403,90.70516142817877,37.77489020770821,-122.4193327249215
1773096257516,191.20000000000002,191.20000000000002,-3.581710406686203,5.537786042791138,81.9420483289596,90.77242961911561,37.7748934145792,-122.4193229573466
1773096257616,192.0,192.0,-1.349398649775398,6.6097223586701634,82.13194770826726,90.84258759524569,37.77489756406577,-122.41931352114828
1773096257716,192.8,192.8,-0.3432763565547874,5.553359034831422,82.32083390124737,90.91542787708222,37.774902618376295,-122.41930450877562
1773096257816,193.60000000000002,193.60000000000002,-1.296219029750423,5.521793461342752,82.50871801918801,90.99073628077107,37.77490853067848,-122.41929600844288
1773096257916,194.4,194.4,-2.565842352513439,6.131556158361716,82.69561127358396,91.06829245343886,37.774915245567236,-122.41928810324829
1773096258016,195.20000000000002,195.20000000000002,0.3438284386320847,5.289992841332316,82.88152497501557,91.14787042396034,37.774922699618294,-122.41928087034356
1773096258116,196.0,196.0,-2.6833430199875012,6.481461893809156,83.06647053201755,91.2292391677686,37.77493082202194,-122.41927438016315
1773096258216,196.8,196.8,0.8216868475591705,5.940371264905788,83.25045944993838,91.31216318429611,37.77493953529047,-122.41926869572043
1773096258316,197.60000000000002,197.60000000000002,-1.2178787213077875,4.998685518133526,83.43350332978956,91.39640308560352,37.7749487560325,-122.41926387197817
1773096258416,198.4,198.4,1.9766368782138293,5.809810688608732,83.61561386708567,91.48171619472483,37.774958395786086,-122.41925995529924
1773096258516,199.20000000000002,199.20000000000002,-1.5511132709050353,5.32140688869079,83.79680285067472,91.56785715223339,37.7749683619027,-122.41925698298346
1773096258616,200.0,200.0,-0.32483800872514135,5.28458071403739,83.97708216155935,91.65457852951276,37.774978558472874,-122.41925498289487
1773096258716,200.8,200.8,1.6279248467568448,4.964610178329762,84.15646377170869,91.74163144719934,37.774988887284536,-122.41925397318337
1773096258816,201.60000000000002,201.60000000000002,1.2395128950316925,5.459545381574125,84.33495974286123,91.82876619725117,37.77499924880431,-122.41925396210333
1773096258916,202.4,202.4,1.297303060917332,6.450455800741587,84.51258222531858,91.91573286708797,37.77500954317201,-122.41925494793108
1773096259016,203.20000000000002,203.20000000000002,0.9918868888601688,5.039607997955881,84.68934345673054,92.0022819642425,37.775019671198386,-122.41925691898224
1773096259116,204.0,204.0,-0.9016050033029605,5.880297230384625,84.86525576087125,92.08816503996174,37.775029535356246,-122.41925985372836
1773096259216,204.8,204.8,1.7782537479852483,5.8629959028427585,85.04033154640689,92.17313531019941,37.775039040754855,-122.4192637210121
1773096259316,205.60000000000002,205.60000000000002,0.7181790269208254,5.808259283374171,85.21458330565483,92.25694827244754,37.77504809608812,-122.41926848035848
1773096259416,206.4,206.4,2.5372309898961958,5.671931055592372,85.38802361333431,92.33936231686545,37.77505661454683,-122.41927408237935
1773096259516,207.20000000000002,207.20000000000002,1.3269962622703282,6.9021655975886755,85.56066512530914,92.42013933017842,37.77506451468603,-122.41928046926682
1773096259616,208.0,208.0,1.2963084602267967,5.929264175182797,85.73252057732196,92.49904529083705,37.775071721238845,-122.41928757537086
1773096259716,208.8,208.8,0.44299245679093846,5.27039278066506,85.9036027837208,92.57585085394906,37.77507816586846,-122.41929532785532
1773096259816,209.60000000000002,209.60000000000002,2.3752504908793477,6.042666373259576,86.07392463617757,92.65033192452223,37.77508378785096,-122.41930364742556
1773096259916,210.4,210.4,3.1688411828205023,5.149639005358947,86.24349910239899,92.72227021758508,37.77508853468204,-122.4193124491209
1773096260016,211.20000000000002,211.20000000000002,3.664061039015941,4.739220074435623,86.41233922482972,92.79145380378566,37.77509236260161,-122.41932164316327
1773096260116,212.0,212.0,2.500105527178265,5.963778141080955,86.58045811934824,92.85767763910455,37.77509523703107,-122.41933113585458
1773096260216,212.8,212.8,3.1192851744947676,5.748883014339557,86.74786897395518,92.92074407735814,37.77509713291873,-122.41934083051261
1773096260316,213.60000000000002,213.60000000000002,1.4819172745928821,5.505611588589869,86.9145850474546,92.98046336421113,37.77509803499022,-122.41935062843721
1773096260416,214.4,214.4,3.5293587123985395,7.145557124377477,87.08061966812807,93.03665411146355,37.77509793790102,-122.41936042989643
1773096260516,215.20000000000002,215.20000000000002,3.337624725553744,6.0948602083500125,87.24598623240189,93.08914375042684,37.7750968462899,-122.41937013512293
1773096260616,216.0,216.0,3.5973598698694644,6.025460516516923,87.41069820350745,93.13776896325562,37.77509477473256,-122.41937964531103
1773096260716,216.8,216.8,2.1588111820640794,5.274176226200066,87.57476911013488,93.18237609115732,37.775091747595994,-122.41938886360364
1773096260816,217.60000000000002,217.60000000000002,4.52030657680846,7.075199571665397,87.73821254508026,93.2228215184591,37.77508779879506,-122.41939769606037
1773096260916,218.4,218.4,3.0480465198233926,6.153064730531249,87.90104216388629,93.25897203157223,37.77508297145355,-122.41940605259583
1773096261016,219.20000000000002,219.20000000000002,2.662902005387176,5.607469334696663,88.06327168347678,93.29070515195674,37.77507731747335,-122.41941384787998
1773096261116,220.0,220.0,4.470846777863052,6.199122142289027,88.22491488078498,93.31790944225394,37.77507089701583,-122.41942100219053
1773096261216,220.8,220.8,3.975533612359329,6.632224465778342,88.38598559137583,93.34048478482175,37.7750637779008,-122.41942744220967
1773096261316,221.60000000000002,221.60000000000002,4.070772590387363,5.827314533415435,88.54649770806252,93.35834263197675,37.775056034928774,-122.41943310175648
1773096261416,222.4,222.4,4.341813697150737,5.828041010761345,88.70646517951714,93.37140622731722,37.77504774913366,-122.41943792244832
1773096261516,223.20000000000002,223.20000000000002,4.36908484823779,6.606955646120472,88.86590200887585,93.37961079757413,37.77503900697307,-122.41944185428409
1773096261616,224.0,224.0,5.2780382524236815,6.427313754979574,89.02482225233857,93.38290371451072,37.77502989946446,-122.41944485614381
1773096261716,224.8,224.8,6.370417902650519,5.4754907528696535,89.1832400177634,93.3812446264655,37.77502052127574,-122.41944689619959
1773096261816,225.60000000000002,225.60000000000002,6.101998535823801,5.6628471623180365,89.3411694632558,93.37460555921054,37.775010969779366,-122.41944795223348
1773096261916,226.4,226.4,6.066417286664765,6.498712725077317,89.49862479575283,93.36297098587237,37.77500134407941,-122.41944801185963
1773096262016,227.20000000000002,227.20000000000002,5.604312975139266,6.20082322556113,89.6556202696025,93.34633786574115,37.774991744021385,-122.4194470726479
1773096262116,228.0,228.0,5.656918087441702,6.694100525735372,89.81217018513817,93.3247156518708,37.77498226919456,-122.41944514214828
1773096262216,228.8,228.8,6.543684164453346,6.770689192821822,89.9682888872488,93.29812626745138,37.774973017936986,-122.4194422378153
1773096262316,229.60000000000002,229.60000000000002,5.872714745123827,5.659700740134629,90.12399076394426,93.26660405101238,37.774964086352846,-122.41943838683378
1773096262416,230.4,230.4,4.843531911763021,5.614726556753024,90.27929024491665,93.23019567059443,37.77495556735226,-122.4194336258471
1773096262516,231.20000000000002,231.20000000000002,5.6274531178507,5.4225566626559605,90.4342018000973,93.18896000710343,37.77494754972295,-122.41942800059111
1773096262616,232.0,232.0,6.820068795329923,5.576136518292536,90.58873993820974,93.14296800713896,37.77494011724312,-122.4194215654372
1773096262716,232.8,232.8,5.207479989242911,5.9001560452834445,90.74291920531896,93.09230250566473,37.774933347844325,-122.41941438284891
1773096262816,233.60000000000002,233.60000000000002,7.262508217200722,5.653601402095407,90.89675418337674,93.03705801896432,37.77492731283286,-122.41940652275798
1773096262916,234.4,234.4,7.1390895101692395,5.976111140899716,91.05025948876347,92.97734050839968,37.77492207617724,-122.41939806186548
1773096263016,235.20000000000002,235.20000000000002,7.473362971897037,5.384395307719335,91.20344977082657,92.9132671155629,37.77491769386909,-122.41938908287553
1773096263116,236.0,236.0,7.386669899911764,6.3119412379771855,91.35633971041541,92.84496586948329,37.774914213363665,-122.41937967366884
1773096263216,236.8,236.8,6.926282087037296,5.228204051306647,91.50894401841349,92.7725753666214,37.77491167310572,-122.41936992642479
1773096263316,237.60000000000002,237.60000000000002,6.53089033725463,5.666738659773823,91.66127743426718,92.6962444244501,37.774910102145355,-122.41935993670026
1773096263416,238.4,238.4,5.845687654352311,6.314816875382452,91.81335472451183,92.61613170948843,37.77490951984778,-122.41934980247495
1773096263516,239.20000000000002,239.20000000000002,9.04430795063245,5.789296089929913,91.96519068129516,92.53240534071784,37.7749099356998,-122.41933962317233
1773096263616,240.0,240.0,7.1514343824360225,5.695031648420224,92.116800120898,92.44524246937243,37.774911349215046,-122.41932949866627
1773096263716,240.8,240.8,7.95858980168239,5.793542344035511,92.26819788225275,92.35482883615293,37.77491374993883,-122.41931952828318
1773096263816,241.60000000000002,241.60000000000002,6.237127985989125,5.676263684583483,92.41939882545944,92.26135830697189,37.77491711755261,-122.41930980980946
1773096263916,242.4,242.4,8.298624180565932,5.757607685216893,92.57041783029973,92.1650323883897,37.77492142207698,-122.41930043851455
1773096264016,243.20000000000002,243.20000000000002,7.060199488533942,5.8819918898500205,92.72126979474903,92.06605972395323,37.774926624171236,-122.41929150619899
1773096264116,244.0,244.0,8.068969344884765,6.514064892987241,92.87196963348656,91.96465557269558,37.774932675526465,-122.41928310027718
1773096264216,244.8,244.8,7.530376269622374,6.314795402739538,93.02253227640404,91.86104127110059,37.77493951934822,-122.41927530290396
1773096264316,245.60000000000002,245.60000000000002,9.924400549746492,7.028473055096132,93.17297266711265,91.75544367987693,37.77494709092398,-122.41926819015379
1773096264416,246.4,246.4,8.015939904182806,5.588886176904814,93.3233057614487,91.64809461692448,37.77495531826975,-122.41926183126054
1773096264516,247.20000000000002,247.20000000000002,7.916800726838447,6.095334814017908,93.47354652597802,91.53923027791029,37.77496412284929,-122.41925628792585
1773096264616,248.0,248.0,8.577287354896281,6.044623919489372,93.62370993649935,91.4290906459024,37.77497342035884,-122.41925161370254
1773096264716,248.8,248.8,7.899118588909332,5.399583874414885,93.77381097654681,91.31791889153719,37.774983121569456,-122.41924785345954
1773096264816,249.60000000000002,249.60000000000002,8.143003094198262,5.6116916777235994,93.92386463589143,91.20596076521942,37.77499313321853,-122.41924504293364
1773096264916,250.4,250.4,6.722769800686981,7.331880497533659,94.07388590904236,91.09346398287418,37.77500335894165,-122.41924320837232
1773096265016,251.20000000000002,251.20000000000002,8.249661461820194,5.803520847766699,94.2238897937473,90.98067760678612,37.77501370023548,-122.41924236627159
1773096265116,252.0,252.0,7.213241840585206,6.854181538859209,94.37389128949278,90.86785142307343,37.7750240574419,-122.41924252321107
1773096265216,252.8,252.8,8.365580766368849,6.375699286989473,94.5239053960042,90.75523531735261,37.77503433074382,-122.41924367578837
1773096265316,253.60000000000002,253.60000000000002,8.280482555854489,6.507772505127295,94.67394711174593,90.6430786501546,37.77504442116249,-122.41924581065291
1773096265416,254.4,254.4,7.4307213989103085,6.016386946435472,94.82403143242146,90.53162963365331,37.77505423154647,-122.41924890463956
1773096265516,255.20000000000002,255.20000000000002,6.047230771632237,6.174828313508183,94.97417334947379,90.42113471126443,37.775063667542334,-122.41925292499984
1773096265616,256.0,256.0,7.436221935295551,6.353458910646326,95.1243878485863,90.31183794166527,37.77507263853741,-122.4192578297293
1773096265716,256.8,256.8,7.86494624673757,5.754180299968523,95.27468990818429,90.20398038877515,37.77508105856518,-122.41926356798717
1773096265816,257.6,257.6,7.85993411666958,6.023315406232996,95.42509449793701,90.09779951922111,37.77508884716419,-122.41927008060432
1773096265916,258.40000000000003,258.40000000000003,4.912195994219223,6.701334567531271,95.57561657726087,89.9935286087951,37.77509593018202,-122.41927730067451
1773096266016,259.2,259.2,7.713383988082889,5.904906853151869,95.72627109382337,89.89139615938592,37.77510224051619,-122.4192851542228
1773096266116,260.0,260.0,7.0646944980006925,6.5503148323179685,95.87707298204838,89.79162532784349,37.7751077187846,-122.41929356094485
1773096266216,260.8,260.8,5.976377734140352,5.76770371009468,96.02803716162273,89.69443336820302,37.7751123139189,-122.41930243500907
1773096266316,261.6,261.6,7.610842897951277,6.663186001036306,96.1791785360043,89.60003108866296,37.77511598367472,-122.41931168591444
1773096266416,262.40000000000003,262.40000000000003,7.208239806900838,6.691554428889194,96.33051199093158,89.50862232467439,37.775118695053756,-122.4193212193946
1773096266516,263.2,263.2,7.591847793013691,6.71509053514991,96.48205239293523,89.4204034294585,37.77512042463349,-122.41933093835983
1773096266616,264.0,264.0,5.610658863026359,6.995074211359169,96.63381458785128,89.33556278322577,37.77512115880121,-122.41934074386712
1773096266716,264.8,264.8,7.493560756369622,6.33577582598204,96.78581339933672,89.25428032232361,37.77512089389006,-122.41935053610871
1773096266816,265.6,265.6,6.37418225900786,5.85679781046814,96.93806362738708,89.17672708948915,37.77511963621563,-122.41936021540944
1773096266916,266.40000000000003,266.40000000000003,7.208500990658827,6.220194405254573,97.09058004685645,89.1030648063315,37.77511740201286,-122.41936968322257
1773096267016,267.2,267.2,7.6859888469108455,5.9341461932512,97.24337740597996,89.03344546911197,37.77511421727386,-122.41937884311452
1773096267116,268.0,268.0,5.834331386078787,6.610199064014746,97.39647042489901,88.96801096883252,37.775110117488175,-122.4193876017283
1773096267216,268.8,268.8,7.633497560342897,6.387403234333265,97.54987379418931,88.90689273658217,37.7751051472882,-122.41939586971644
1773096267316,269.6,269.6,6.458751333716155,6.0917534094254036,97.70360217339174,88.85021141502779,37.775099360003225,-122.41940356263356
1773096267416,270.40000000000003,270.40000000000003,6.391972935741628,5.9222675524399016,97.85767018954654,88.79807655687016,37.775092817126556,-122.41941060178024
1773096267516,271.2,271.2,6.223377055684642,6.545282026101215,98.01209243573045,88.75058635101934,37.775085587701156,-122.41941691498931
1773096267616,272.0,272.0,7.49029154528567,5.755754196918419,98.16688346959754,88.7078273771735,37.77507774762973,-122.41942243734691
1773096267716,272.8,272.8,6.625848038108791,5.530478435877797,98.3220578119234,88.6698743894148,37.77506937891638,-122.41942711184116
1773096267816,273.6,273.6,3.433310893396775,5.640140893264535,98.47762994515314,88.63679012936305,37.775060568847195,-122.41943088993169
1773096267916,274.40000000000003,274.40000000000003,5.517970258261401,5.168317813884035,98.63361431195305,88.60862516935443,37.77505140911818,-122.41943373203473
1773096268016,275.2,275.2,6.499686314095814,6.282627875484796,98.79002531376649,88.58541778603687,37.77504199491899,-122.41943560791859
1773096268116,276.0,276.0,6.33490919583201,6.33629805736763,98.94687730937356,88.5671938646985,37.775032423981884,-122.4194364970057
1773096268216,276.8,276.8,7.484788281718994,6.722578957889975,99.10418461345544,88.55396683456776,37.775022795605196,-122.41943638857826
1773096268316,277.6,277.6,5.6898919175063005,6.3055691495140005,99.26196149516281,88.54573763524749,37.77501320966116,-122.41943528188531
1773096268416,278.40000000000003,278.40000000000003,5.047410183183015,6.473303734192285,99.42022217668898,88.54249471436624,37.77500376559806,-122.4194331861502
1773096268516,279.2,279.2,4.62232177383927,6.906357274901711,99.57898083184769,88.54421405645333,37.774994561446526,-122.41943012047848
1773096268616,280.0,280.0,6.580972874278906,6.16152163875717,99.7382515846557,88.55085924296492,37.77498569284008,-122.419426113667
1773096268716,280.8,280.8,5.416338443706454,6.1933927828781705,99.89804850792046,88.56238154331145,37.774977252059614,-122.41942120391612
1773096268816,281.6,281.6,4.59701585097847,6.751425620032007,100.05838562183284,88.57872003665871,37.77496932711129,-122.41941543844814
1773096268916,282.40000000000003,282.40000000000003,3.7630854438690498,6.670429035874725,100.21927689256502,88.59980176419825,37.774962000847275,-122.41940887303534
1773096269016,283.2,283.2,3.4213103086775103,6.300983647928732,100.38073623087405,88.6255419115063,37.77495535013784,-122.41940157144283
1773096269116,284.0,284.0,4.32507754105934,6.6514995104685735,100.54277749071059,88.65584402053584,37.77494944510337,-122.41939360479135
1773096269216,284.8,284.8,3.6099812505001285,6.795093388721632,100.70541446783375,88.69060023071123,37.77494434841371,-122.41938505084673
1773096269316,285.6,285.6,3.5983528296823444,5.923007540105542,100.8686608984313,88.72969154852373,37.774940114661995,-122.4193759932428
1773096269416,286.40000000000003,286.40000000000003,4.15042865654075,6.404759068499582,101.03253045774625,88.77298814495313,37.77493678981914,-122.41936652064577
1773096269516,287.2,287.2,3.4244601237031813,6.610013888324002,101.19703675870923,88.82034967997278,37.77493441077458,-122.4193567258684
1773096269616,288.0,288.0,3.9735531911669204,6.401741860954591,101.36219335057721,88.87162565332648,37.7749330049676,-122.41934670494248
1773096269716,288.8,288.8,4.181414425081202,6.811825784774987,101.52801371757865,88.92665578070086,37.77493259011328,-122.4193365561595
1773096269816,289.6,289.6,3.6808104933547385,6.720121763689783,101.69451127756503,88.98527039435255,37.774933174025385,-122.41932637908836
1773096269916,290.40000000000003,290.40000000000003,2.8331366979037536,6.415603249827356,101.86169938066908,89.04729086718933,37.77493475453834,-122.41931627358066
1773096270016,291.2,291.2,0.8348036759498716,6.690838453653729,102.02959130796987,89.1125300592447,37.774937319528874,-122.41930633877294
1773096270116,292.0,292.0,2.8068894239568802,5.981672336337392,102.1982002701645,89.18079278543043,37.77494084703712,-122.41929667209621
1773096270216,292.8,292.8,1.8835519472394364,6.383281309774404,102.36753940624732,89.25187630339754,37.77494530548609,-122.4192873683023
1773096270316,293.6,293.6,2.9493860297723162,5.062198038287745,102.53762178219583,89.32557082028667,37.77495065399712,-122.41927851851736
1773096270416,294.40000000000003,294.40000000000003,2.211785817991019,6.678127996507833,102.70846038966414,89.40166001710094,37.774956842798325,-122.41927020933115
1773096270516,295.2,295.2,1.6165497301234475,6.6427167627156125,102.8800681446839,89.47992158939076,37.77496381372196,-122.41926252193194
1773096270616,296.0,296.0,0.22376401542762991,6.266049976539947,103.0524578863726,89.56012780289922,37.774971500785526,-122.41925553129538
1773096270716,296.8,296.8,1.2701362447509157,6.0479881793424335,103.22564237564973,89.64204606277912,37.77497983085113,-122.41924930543522
1773096270816,297.6,297.6,1.8665804307502811,5.476549206326323,103.39963429396069,89.72543949495893,37.77498872435619,-122.4192439047239
1773096270916,298.40000000000003,298.40000000000003,4.536453661863136,6.392181244226864,103.57444624200863,89.81006753820462,37.774998096108426,-122.41923938128915
1773096271016,299.2,299.2,1.068650941499945,5.751596975213465,103.75009073849445,89.89568654539748,37.77500785613709,-122.41923577849332
1773096271116,300.0,300.0,1.1046058649302533,6.167792360147137,103.92658021886484,89.98205039252504,37.775017910591856,-122.4192331305
1773096271216,300.8,300.8,-0.53710717302814,5.995237279420148,104.10392703406885,90.06891109386287,37.775028162680655,-122.41923146193274
1773096271316,301.6,301.6,1.7216883577469844,6.615702849584112,104.28214344932275,90.15601942180976,37.77503851363669,-122.41923078762895
1773096271416,302.40000000000003,302.40000000000003,0.3521031745785249,6.410607668234234,104.46124164288352,90.24312552982695,37.7750488637053,-122.41923111249169
1773096271516,303.2,303.2,-2.4369182922717663,5.852210871255719,104.6412337048311,90.32997957692437,37.77505911314071,-122.41923243144073
1773096271616,304.0,304.0,1.2345844288792993,6.957309028597724,104.82213163585921,90.41633235213295,37.775069163202645,-122.4192347294632
1773096271716,304.8,304.8,0.2012540297354336,5.951713725012095,105.00394734607555,90.5019358974023,37.7750789171429,-122.4192379817637
1773096271816,305.6,305.6,0.5725240689016386,6.013335325723565,105.18669265381058,90.5865441273667,37.77508828117201,-122.41924215401194
1773096271916,306.40000000000003,306.40000000000003,-0.6102861169221298,6.257249170292967,105.37037928443586,90.66991344443028,37.77509716539637,-122.4192472026859
1773096272016,307.20000000000005,307.20000000000005,-2.0505534424641407,7.165428295682356,105.55501886919136,90.7518033476343,37.775105484716434,-122.41925307550649
1773096272116,308.0,308.0,-0.6238903432388234,7.417646320045283,105.74062294402249,90.83197703378411,37.77511315967701,-122.41925971196014
1773096272216,308.8,308.8,-1.6162480390772647,7.277745685912063,105.92720294842643,90.910201989334,37.77512011726111,-122.41926704390323
1773096272316,309.6,309.6,-1.8327668233703687,6.113945831345293,106.1147702243082,90.98625057154982,37.77512629161953,-122.41927499624308
1773096272416,310.40000000000003,310.40000000000003,-1.9336449253235075,5.686584722097534,106.30333601484656,91.05990057749733,37.775131624728814,-122.41928348768819
1773096272516,311.20000000000005,311.20000000000005,-3.4706203948075407,6.474438938608897,106.49291146336958,91.13093579943383,37.77513606697099,-122.41929243156048
1773096272616,312.0,312.0,-3.218114408121064,6.48136706409102,106.68350761224039,91.19914656521486,37.77513957762932,-122.41930173666142
1773096272716,312.8,312.8,-1.4528073209000598,6.143749878861806,106.87513540175291,91.26433026236543,37.77514212529516,-122.41931130818315
1773096272816,313.6,313.6,-3.6145014127812316,7.441851172942509,107.06780566903791,91.32629184450566,37.77514368818177,-122.41932104865587
1773096272916,314.40000000000003,314.40000000000003,-3.3430688450335806,6.988162625285013,107.2615291469792,91.3848443188651,37.775144254341974,-122.41933085892164
1773096273016,315.20000000000005,315.20000000000005,-3.681614350304813,7.257199725683297,107.45631646314042,91.43980921366739,37.77514382178758,-122.4193406391252
1773096273116,316.0,316.0,-4.626765541679514,6.386840860540846,107.65217813870231,91.49101702421666,37.77514239850922,-122.41935028971162
1773096273216,316.8,316.8,-3.1168299272440607,6.579750924222861,107.8491245874105,91.53830763657102,37.775140002396505,-122.4193597124211
1773096273316,317.6,317.6,-3.3798022942787362,5.891599651692883,108.04716611453425,91.58153072774404,37.77513666105929,-122.4193688112707
1773096273416,318.40000000000003,318.40000000000003,-4.306014423738163,6.774082648239763,108.24631291583587,91.62054614143388,37.775132411551795,-122.41937749351335
1773096273516,319.20000000000005,319.20000000000005,-4.619062905558576,6.659988736217561,108.4465750765512,91.65522423834113,37.77512730000238,-122.41938567056467
1773096273616,320.0,320.0,-3.921094127971258,6.177662344188506,108.64796257038108,91.68544622019951,37.77512138115266,-122.41939325888785
1773096273716,320.8,320.8,-2.5507257496704088,6.8373895789385895,108.8504852584939,91.71110442670965,37.77511471781049,-122.41940018082859
1773096273816,321.6,321.6,-3.9155134782725938,6.099921569118301,109.05415288853963,91.73210260463377,37.77510738022249,-122.41940636539077
1773096273916,322.40000000000003,322.40000000000003,-3.5831782460809203,6.431454024377613,109.258975093675,91.74835614837868,37.77509944537208,-122.41941174894595
1773096274016,323.20000000000005,323.20000000000005,-3.279222323267696,7.145928711394806,109.4649613916002,91.75979231146566,37.77509099621036,-122.41941627586908
1773096274116,324.0,324.0,-6.5381210850171465,6.115523084794571,109.67212118360708,91.7663503883588,37.77508212082725,-122.41941989909432
1773096274216,324.8,324.8,-4.538504686893347,6.696973752161091,109.88046375363903,91.76798186619725,37.775072911571336,-122.41942258058522
1773096274316,325.6,325.6,-4.733257361229204,6.099294304600329,110.08999826736273,91.764650546052,37.775063464127136,-122.4194242917149
1773096274416,326.40000000000003,326.40000000000003,-6.9468713365451595,7.023902405023337,110.30073377125139,91.7563326334045,37.77505387655908,-122.41942501355197
1773096274516,327.20000000000005,327.20000000000005,-6.2586533056633655,6.9223455760737265,110.51267919168022,91.74301679762043,37.77504424833166,-122.4194247370497
1773096274616,328.0,328.0,-5.332815420931022,5.862289271979271,110.72584333403384,91.72470420027048,37.775034679315645,-122.4194234631365
1773096274716,328.8,328.8,-6.013425302066197,7.426991757473193,110.9402348818256,91.70140849222697,37.77502526879015,-122.4194212027065
