timestamp,altitude_m,speed_mps,roll_deg,pitch_deg,yaw_deg,battery_percent,gps_lat,gps_lon
2026-03-09 22:41:37.152926,0.0,0.0,0.0,0.0,0.0,100.0,37.7749,-122.41839999999999
2026-03-09 22:41:37.256099,0.5,0.3,0.049999166670833324,0.04499831251898427,0.5,99.92,37.774900999999836,-122.4184000005
2026-03-09 22:41:37.356122,1.0,0.6,0.0999933334666654,0.08998650060748697,1.0,99.84,37.77490199999867,-122.418400002
2026-03-09 22:41:37.456127,1.5,0.8999999999999999,0.1499775010124783,0.1349544421129807,1.5,99.76,37.774902999995504,-122.41840000449999
2026-03-09 22:41:37.556131,2.0,1.2,0.1999466709331708,0.17989201943833377,2.0,99.68,37.774903999989334,-122.41840000799999
2026-03-09 22:41:37.656135,2.5,1.5,0.24989584635339165,0.22478912181822702,2.5,99.6,37.77490499997917,-122.41840001249997
2026-03-09 22:41:37.756139,3.0,1.7999999999999998,0.299820032397223,0.26963564759403313,3.0,99.52,37.774905999964005,-122.41840001799994
2026-03-09 22:41:37.856142,3.5,2.1,0.3497142366876638,0.31442150648664746,3.5,99.44,37.774906999942836,-122.4184000244999
2026-03-09 22:41:37.956146,4.0,2.4,0.3995734698458635,0.3591366218667581,4.0,99.36,37.77490799991467,-122.41840003199982
2026-03-09 22:41:38.056149,4.5,2.6999999999999997,0.4493927459900552,0.4037709330220449,4.5,99.28,37.774908999878505,-122.41840004049972
2026-03-09 22:41:38.156153,5.0,3.0,0.4991670832341408,0.44831439742079765,5.0,99.2,37.77490999983333,-122.41840004999958
2026-03-09 22:41:38.256156,5.5,3.3,0.5488915041858741,0.4927569929714428,5.5,99.12,37.77491099977817,-122.41840006049938
2026-03-09 22:41:38.356161,6.0,3.5999999999999996,0.5985610364445968,0.5370887202774726,6.0,99.04,37.774911999712,-122.41840007199913
2026-03-09 22:41:38.456164,6.5,3.9,0.6481707130984743,0.5812996048872658,6.5,98.96,37.77491299963384,-122.4184000844988
2026-03-09 22:41:38.556168,7.0,4.2,0.6977155732211825,0.6253796995382986,7.0,98.88,37.774913999542676,-122.4184000979984
2026-03-09 22:41:38.656171,7.5,4.5,0.747190662367996,0.6693190863952363,7.5,98.8,37.774914999437506,-122.41840011249789
2026-03-09 22:41:38.756175,8.0,4.8,0.7965910330712299,0.7131078792814037,8.0,98.72,37.774915999317344,-122.41840012799726
2026-03-09 22:41:38.856178,8.5,5.1,0.8459117453349801,0.7567362259031342,8.5,98.64,37.77491699918118,-122.41840014449652
2026-03-09 22:41:38.956182,9.0,5.3999999999999995,0.8951478671291209,0.8001943100664934,9.0,98.56,37.77491799902802,-122.41840016199562
2026-03-09 22:41:39.056185,9.5,5.7,0.9442944748825028,0.843472353885882,9.5,98.48,37.774918998856855,-122.41840018049457
2026-03-09 22:41:39.156199,10.0,6.0,0.9933466539753061,0.8865606199840186,10.0,98.4,37.7749199986667,-122.41840019999333
2026-03-09 22:41:39.256203,10.5,6.3,1.0422994992304977,0.9294494136828086,10.5,98.32,37.77492099845654,-122.41840022049189
2026-03-09 22:41:39.356206,11.0,6.6,1.0911481154043465,0.972129085184605,11.0,98.24,37.77492199822538,-122.41840024199024
2026-03-09 22:41:39.456209,11.5,6.8999999999999995,1.139887617675942,1.0145900317433738,11.5,98.16,37.774922997972226,-122.41840026448834
2026-03-09 22:41:39.556213,12.0,7.199999999999999,1.188513132135673,1.0568226998252699,12.0,98.08,37.77492399769607,-122.41840028798617
2026-03-09 22:41:39.656216,12.5,7.5,1.2370197962726146,1.0988175872581427,12.5,98.0,37.774924997395914,-122.41840031248373
2026-03-09 22:41:39.756220,13.0,7.8,1.2854027594607755,1.1405652453694843,13.0,97.92,37.77492599707077,-122.41840033798096
2026-03-09 22:41:39.856223,13.5,8.1,1.3336571834441557,1.1820562811123412,13.5,97.84,37.77492699671962,-122.41840036447785
2026-03-09 22:41:39.956226,14.0,8.4,1.3817782428205687,1.2232813591787104,14.0,97.76,37.77492799634148,-122.41840039197439
2026-03-09 22:41:40.056235,14.5,8.7,1.4297611255241778,1.2642312040999442,14.5,97.68,37.77492899593534,-122.41840042047053
2026-03-09 22:41:40.156238,15.0,9.0,1.4776010333066978,1.3048966023336905,15.0,97.6,37.7749299955002,-122.41840044996624
2026-03-09 22:41:40.256241,15.5,9.299999999999999,1.5252931822172175,1.3452684043369032,15.5,97.52,37.77493099503508,-122.41840048046151
2026-03-09 22:41:40.356245,16.0,9.6,1.5728328030805887,1.3853375266244485,16.0,97.44,37.774931994538946,-122.4184005119563
2026-03-09 22:41:40.456248,16.5,9.9,1.6202151419743418,1.4250949538128523,16.5,97.36,37.774932994010825,-122.41840054445059
2026-03-09 22:41:40.556251,17.0,10.2,1.667435460704072,1.4645317406487224,17.0,97.28,37.774933993449714,-122.41840057794431
2026-03-09 22:41:40.656254,17.5,10.5,1.714489037277257,1.5036390140213935,17.5,97.2,37.774934992854604,-122.41840061243747
2026-03-09 22:41:40.756258,18.0,10.799999999999999,1.7613711663754497,1.5424079749593393,18.0,97.12,37.774935992224506,-122.41840064793001
2026-03-09 22:41:40.856261,18.5,11.1,1.80807715982481,1.5808299006099038,18.5,97.04,37.77493699155841,-122.41840068442191
2026-03-09 22:41:40.956264,19.0,11.4,1.8546023470649133,1.6188961462019076,19.0,96.96,37.77493799085533,-122.41840072191312
2026-03-09 22:41:41.056267,19.5,11.7,1.900942075615807,1.6565981469906828,19.5,96.88,37.77493899011425,-122.41840076040361
2026-03-09 22:41:41.156271,20.0,12.0,1.9470917115432527,1.6939274201851062,20.0,96.8,37.774939989334186,-122.41840079989333
2026-03-09 22:41:41.256274,20.5,12.299999999999999,1.9930466399221147,1.7308755668561904,20.5,96.72,37.77494098851413,-122.41840084038226
2026-03-09 22:41:41.356278,21.0,12.6,2.038802265297851,1.7674342738268085,21.0,96.64,37.774941987653094,-122.41840088187035
2026-03-09 22:41:41.456281,21.5,12.9,2.0843540121460538,1.8035953155421232,21.5,96.56,37.77494298675006,-122.41840092435756
2026-03-09 22:41:41.556284,22.0,13.2,2.1296973253299982,1.839350555920301,22.0,96.48,37.77494398580404,-122.41840096784384
2026-03-09 22:41:41.656287,22.5,13.5,2.174827670556151,1.8746919501830992,22.5,96.4,37.77494498481404,-122.41840101232914
2026-03-09 22:41:41.756291,23.0,13.799999999999999,2.219740534827599,1.9096115466659036,23.0,96.32,37.774945983779055,-122.41840105781345
2026-03-09 22:41:41.856294,23.5,14.1,2.264431426895342,1.9441014886068215,23.5,96.24,37.77494698269808,-122.41840110429669
2026-03-09 22:41:41.956297,24.0,14.399999999999999,2.308895877707414,1.9781540159144193,24.0,96.16,37.77494798157012,-122.41840115177882
2026-03-09 22:41:42.056300,24.5,14.7,2.35312944085579,2.011761466913711,24.5,96.08,37.77494898039419,-122.41840120025981
2026-03-09 22:41:42.156304,25.0,15.0,2.397127693021015,2.0449162800700025,25.0,96.0,37.77494997916927,-122.4184012497396
2026-03-09 22:41:42.256307,25.5,15.299999999999999,2.4408862344145374,2.0776109956902036,25.5,95.92,37.77495097789438,-122.41840130021814
2026-03-09 22:41:42.356310,26.0,15.6,2.484400689218684,2.109838257601231,26.0,95.84,37.7749519765685,-122.41840135169538
2026-03-09 22:41:42.456314,26.5,15.899999999999999,2.5276667060242346,2.1415908148051104,26.5,95.76,37.77495297519065,-122.41840140417126
2026-03-09 22:41:42.556317,27.0,16.2,2.5706799582655653,2.172861523110427,27.0,95.68,37.77495397375983,-122.41840145764574
2026-03-09 22:41:42.656320,27.5,16.5,2.613436144653296,2.2036433467397356,27.5,95.6,37.774954972275026,-122.41840151211876
2026-03-09 22:41:42.756324,28.0,16.8,2.6559309896044168,2.233929359912578,28.0,95.52,37.774955970735256,-122.41840156759027
2026-03-09 22:41:42.856327,28.5,17.099999999999998,2.6981602436698466,2.263712748403759,28.5,95.44,37.77495696913952,-122.41840162406021
2026-03-09 22:41:42.956330,29.0,17.4,2.740119683959368,2.2929868110765153,29.0,95.36,37.774957967486806,-122.41840168152852
2026-03-09 22:41:43.056333,29.5,17.7,2.7818051145639187,2.321744961390245,29.5,95.28,37.77495896577613,-122.41840173999516
2026-03-09 22:41:43.156337,30.0,18.0,2.8232123669751767,2.34998072888245,30.0,95.2,37.774959964006484,-122.41840179946006
2026-03-09 22:41:43.256340,30.5,18.3,2.8643373005024064,2.377687760624563,30.5,95.12,37.77496096217687,-122.41840185992315
2026-03-09 22:41:43.356343,31.0,18.599999999999998,2.9051758026865255,2.404859822651331,31.0,95.04,37.774961960286305,-122.4184019213844
2026-03-09 22:41:43.456347,31.5,18.9,2.9457237897113475,2.431490801363429,31.5,94.96,37.774962958333774,-122.41840198384371
2026-03-09 22:41:43.556350,32.0,19.2,2.9859772068119605,2.457574704902995,32.0,94.88,37.77496395631828,-122.41840204730104
2026-03-09 22:41:43.656370,32.5,19.5,3.025932028680198,2.483105664501773,32.5,94.8,37.77496495423884,-122.41840211175632
2026-03-09 22:41:43.756373,33.0,19.8,3.065584259867169,2.5080779358015617,33.0,94.72,37.77496595209444,-122.4184021772095
2026-03-09 22:41:43.856377,33.5,20.099999999999998,3.1049299351827986,2.532485900146669,33.5,94.64,37.77496694988409,-122.4184022436605
2026-03-09 22:41:43.956380,34.0,20.4,3.143965120092343,2.556324065848089,34.0,94.56,37.77496794760678,-122.41840231110925
2026-03-09 22:41:44.056383,34.5,20.7,3.18268591110984,2.5795870694191034,34.5,94.48,37.774968945261534,-122.41840237955569
2026-03-09 22:41:44.156387,35.0,21.0,3.2210884361884555,2.602269676782051,35.0,94.4,37.77496994284734,-122.41840244899974
2026-03-09 22:41:44.256390,35.5,21.3,3.259168855107683,2.6243667844459644,35.5,94.32,37.774970940363204,-122.41840251944136
2026-03-09 22:41:44.356393,36.0,21.599999999999998,3.2969233598573657,2.6458734206548424,36.0,94.24,37.774971937808125,-122.41840259088045
2026-03-09 22:41:44.456397,36.5,21.9,3.3343481750184893,2.6667847465062677,36.5,94.16,37.77497293518111,-122.41840266331694
2026-03-09 22:41:44.556400,37.0,22.2,3.3714395581407253,2.6870960570401428,37.0,94.08,37.77497393248116,-122.41840273675078
2026-03-09 22:41:44.656403,37.5,22.5,3.4081938001166705,2.7068027822972853,37.5,94.0,37.77497492970728,-122.41840281118188
2026-03-09 22:41:44.756406,38.0,22.8,3.4446072255527564,2.7259004883476496,38.0,93.92,37.77497592685846,-122.41840288661017
2026-03-09 22:41:44.856411,38.5,23.099999999999998,3.480676193136784,2.744384878287942,38.5,93.84,37.77497692393372,-122.41840296303558
2026-03-09 22:41:44.956415,39.0,23.4,3.516397096002051,2.762251793208407,39.0,93.76,37.77497792093206,-122.41840304045802
2026-03-09 22:41:45.056418,39.5,23.7,3.5517663620880393,2.779497213128562,39.5,93.68,37.77497891785247,-122.41840311887741
2026-03-09 22:41:45.156422,40.0,24.0,3.586780454497614,2.796117257901679,40.0,93.6,37.77497991469397,-122.41840319829369
2026-03-09 22:41:45.256437,40.5,24.3,3.621435871850713,2.812108188087799,40.5,93.52,37.77498091145556,-122.41840327870678
2026-03-09 22:41:45.356441,41.0,24.599999999999998,3.6557291486344794,2.8274664057950925,41.0,93.44,37.774981908136226,-122.41840336011657
2026-03-09 22:41:45.456445,41.5,24.9,3.689656855549814,2.842188455489366,41.5,93.36,37.77498290473499,-122.41840344252302
2026-03-09 22:41:45.556448,42.0,25.0,3.7232155998542966,2.856271024771547,42.0,93.28,37.77498390125085,-122.41840352592602
2026-03-09 22:41:45.656451,42.5,25.0,3.7564020257014636,2.8697109451229577,42.5,93.2,37.774984897682806,-122.4184036103255
2026-03-09 22:41:45.756461,43.0,25.0,3.789212814476385,2.882505192618218,43.0,93.12,37.77498589402986,-122.41840369572135
2026-03-09 22:41:45.856464,43.5,25.0,3.8216446851275254,2.8946508886056166,43.5,93.04,37.77498689029103,-122.41840378211353
2026-03-09 22:41:45.956468,44.0,25.0,3.8536943944948465,2.9061453003547957,44.0,92.96,37.774987886465304,-122.41840386950192
2026-03-09 22:41:46.056471,44.5,25.0,3.885358737634119,2.916985841671604,44.5,92.88,37.774988882551696,-122.41840395788643
2026-03-09 22:41:46.156474,45.0,25.0,3.916634548137417,2.927170073479977,45.0,92.8,37.7749898785492,-122.41840404726699
2026-03-09 22:41:46.256477,45.5,25.0,3.9475186984497523,2.936695704370724,45.5,92.72,37.774990874456826,-122.41840413764349
2026-03-09 22:41:46.356481,46.0,25.0,3.97800810018183,2.9455605911170792,46.0,92.64,37.77499187027358,-122.41840422901586
2026-03-09 22:41:46.456485,46.5,25.0,4.0080997044188855,2.953762739156924,46.5,92.56,37.77499286599846,-122.41840432138402
2026-03-09 22:41:46.556488,47.0,25.0,4.0377905020255715,2.961300303041551,47.0,92.48,37.774993861630485,-122.41840441474784
2026-03-09 22:41:46.656492,47.5,25.0,4.067077523946868,2.968171586850886,47.5,92.4,37.774994857168636,-122.41840450910725
2026-03-09 22:41:46.756495,48.0,25.0,4.095957841504991,2.9743750445750594,48.0,92.32,37.77499585261194,-122.41840460446214
2026-03-09 22:41:46.856498,48.5,25.0,4.12442856669225,2.979909280462254,48.5,92.24,37.77499684795938,-122.41840470081243
2026-03-09 22:41:46.956506,49.0,25.0,4.152486852459853,2.984773049332743,49.0,92.16,37.77499784320998,-122.41840479815802
2026-03-09 22:41:47.056510,49.5,25.0,4.1801298930026025,2.988965256859048,49.5,92.08,37.774998838362734,-122.41840489649881
2026-03-09 22:41:47.156513,50.0,11.818594853651364,4.207354924039483,2.9924849598121632,50.0,92.0,37.77499983341665,-122.41840499583472
2026-03-09 22:41:47.256516,52.0,11.801586383045255,4.234159223090076,2.995331366273772,50.5,91.92,37.77500082837073,-122.41840509616561
2026-03-09 22:41:47.356519,54.0,11.783857301906759,4.260540109746815,2.997503835814428,51.0,91.84,37.77500182322399,-122.41840519749142
2026-03-09 22:41:47.456523,56.0,11.765414701631949,4.286494945943017,2.9990018796376505,51.5,91.76,37.77500281797542,-122.41840529981204
2026-03-09 22:41:47.556526,58.0,11.746265959015034,4.312021136216692,2.999825160689899,52.0,91.68,37.77500381262403,-122.41840540312734
2026-03-09 22:41:47.656529,60.0,11.726418733297747,4.337116127970085,2.9999734937364093,52.5,91.6,37.775004807168834,-122.41840550743724
2026-03-09 22:41:47.756533,62.0,11.705880963105752,4.3617774117249315,2.9994468454028724,53.0,91.52,37.77500580160883,-122.41840561274165
2026-03-09 22:41:47.856536,64.0,11.684660863273292,4.386002521373408,2.9982453341829416,53.5,91.44,37.775006795943014,-122.41840571904044
2026-03-09 22:41:47.956539,66.0,11.662766921557367,4.409789034424738,2.996369230411572,54.0,91.36,37.77500779017041,-122.4184058263335
2026-03-09 22:41:48.056556,68.0,11.640207895242748,4.433134572247436,2.9938189562041977,54.5,91.28,37.775008784290016,-122.41840593462074
2026-03-09 22:41:48.156559,70.0,11.61699280763918,4.456036800307177,2.9905950853617567,55.0,91.2,37.77500977830084,-122.41840604390204
2026-03-09 22:41:48.256563,72.0,11.593130944472174,4.478493428400238,2.9866983432415872,55.5,91.12,37.77501077220188,-122.4184061541773
2026-03-09 22:41:48.356566,74.0,11.56863185016884,4.500502210882526,2.9821296065942278,56.0,91.03999999999999,37.775011765992154,-122.41840626544641
2026-03-09 22:41:48.456569,76.0,11.543505324040252,4.52206094689413,2.97688990336615,56.5,90.96,37.77501275967066,-122.41840637770925
2026-03-09 22:41:48.556572,78.0,11.517761416361843,4.543167480579417,2.970980412468474,57.0,90.88,37.7750137532364,-122.41840649096571
2026-03-09 22:41:48.656575,80.0,11.49141042435344,4.563819701302606,2.964402463511723,57.5,90.8,37.7750147466884,-122.41840660521568
2026-03-09 22:41:48.756578,82.0,11.464462888060503,4.584015543858834,2.9571575365066605,58.0,90.72,37.775015740025644,-122.41840672045905
2026-03-09 22:41:48.856582,84.0,11.436929586138252,4.603752988680679,2.949247261531299,58.5,90.64,37.77501673324715,-122.4184068366957
2026-03-09 22:41:48.956585,86.0,11.408821531540353,4.623030062040102,2.9406734183641365,59.0,90.56,37.77501772635192,-122.4184069539255
2026-03-09 22:41:49.056588,88.0,11.380149967113873,4.641844836245833,2.931437936083715,59.5,90.48,37.775018719338966,-122.41840707214836
2026-03-09 22:41:49.156591,90.0,11.350926361102301,4.660195429836131,2.921542892634586,60.0,90.4,37.77501971220729,-122.41840719136414
2026-03-09 22:41:49.256594,92.0,11.321162402558402,4.67808000776693,2.91099051435978,60.5,90.32,37.77502070495591,-122.41840731157274
2026-03-09 22:41:49.356598,94.0,11.290869996668741,4.695496781595338,2.899783175499893,61.0,90.24,37.77502169758382,-122.41840743277402
2026-03-09 22:41:49.456601,96.0,11.260061259991785,4.712444009658487,2.887923397658887,61.5,90.16,37.775022690090026,-122.41840755496786
2026-03-09 22:41:49.556604,98.0,11.228748515611423,4.7289199972476945,2.8754138492367423,62.0,90.08,37.775023682473545,-122.41840767815415
2026-03-09 22:41:49.656607,100.0,11.196944288207913,4.7449230967779314,2.8622573448290813,62.5,90.0,37.77502467473339,-122.41840780233277
2026-03-09 22:41:49.756610,102.0,11.164661299048163,4.760451707952579,2.8484568445938914,63.0,89.92,37.77502566686855,-122.41840792750358
2026-03-09 22:41:49.856613,104.0,11.131912460897405,4.775504277923462,2.834015453585505,63.5,89.84,37.77502665887805,-122.41840805366647
2026-03-09 22:41:49.956617,106.0,11.098710872854253,4.7900793014461245,2.818936421055975,64.0,89.76,37.77502765076089,-122.41840818082129
2026-03-09 22:41:50.056621,108.0,11.065069815111242,4.804175321030363,2.8032231397240057,64.5,89.68,37.77502864251608,-122.41840830896794
2026-03-09 22:41:50.156624,110.0,11.031002743642928,4.817790927085965,2.786879145011608,65.0,89.6,37.77502963414262,-122.41840843810628
2026-03-09 22:41:50.256628,112.0,10.996523284823677,4.83092475806367,2.769908114248641,65.5,89.52,37.77503062563953,-122.41840856823619
2026-03-09 22:41:50.356631,114.0,10.961645229977297,4.843575500591326,2.7523138658454296,66.0,89.44,37.77503161700582,-122.41840869935751
2026-03-09 22:41:50.456634,116.0,10.92638252986069,4.855741889605223,2.7341003584336403,66.5,89.36,37.77503260824049,-122.41840883147015
2026-03-09 22:41:50.556637,118.0,10.890749289083743,4.867422708476597,2.715271689975603,67.0,89.28,37.77503359934255,-122.41840896457396
2026-03-09 22:41:50.656640,120.0,10.85475976046766,4.878616789133296,2.6958320968422873,67.5,89.2,37.77503459031101,-122.41840909866879
2026-03-09 22:41:50.756644,122.0,10.818428339344035,4.889323012176582,2.6757859528601387,68.0,89.12,37.775035581144884,-122.41840923375453
2026-03-09 22:41:50.856647,124.0,10.781769557796904,4.899540306993071,2.6551377683269846,68.5,89.03999999999999,37.775036571843174,-122.41840936983104
2026-03-09 22:41:50.956650,126.0,10.74479807885011,4.909267651861799,2.633892188997234,69.0,88.96,37.77503756240489,-122.41840950689817
2026-03-09 22:41:51.056653,128.0,10.707528690602285,4.918504074056383,2.612053995036609,69.5,88.88,37.775038552829045,-122.4184096449558
2026-03-09 22:41:51.156656,130.0,10.66997630031181,4.927248649942301,2.589628099946621,70.0,88.8,37.775039543114644,-122.41840978400379
2026-03-09 22:41:51.256659,132.0,10.632155928434107,4.9355005050692515,2.566619549459057,70.5,88.72,37.77504053326071,-122.41840992404198
2026-03-09 22:41:51.356663,134.0,10.594082702613665,4.9432588142585985,2.5430335204007095,71.0,88.64,37.77504152326623,-122.41841006507026
2026-03-09 22:41:51.456666,136.0,10.555771851633173,4.950522801685889,2.5188753195286138,71.5,88.56,37.77504251313024,-122.41841020708847
2026-03-09 22:41:51.556669,138.0,10.517238699322222,4.957291740958432,2.4941503823360494,72.0,88.48,37.77504350285172,-122.41841035009647
2026-03-09 22:41:51.656672,140.0,10.478498658427965,4.963564955187943,2.4688642718295783,72.5,88.4,37.775044492429714,-122.41841049409412
2026-03-09 22:41:51.756675,142.0,10.439567224450235,4.969341817058225,2.443022677277388,73.0,88.32,37.77504548186321,-122.41841063908129
2026-03-09 22:41:51.856679,144.0,10.40045996944354,4.9746217488879045,2.4166314129292346,73.5,88.24,37.77504647115122,-122.4184107850578
2026-03-09 22:41:51.956682,146.0,10.361192535788465,4.9794042226882,2.38969641670826,74.0,88.16,37.77504746029276,-122.41841093202353
2026-03-09 22:41:52.056685,148.0,10.321780629934912,4.983688760215717,2.362223748874982,74.5,88.08,37.77504844928684,-122.41841107997834
2026-03-09 22:41:52.156689,150.0,10.282240016119735,4.987474933020272,2.3342195906637637,75.0,88.0,37.77504943813248,-122.41841122892205
2026-03-09 22:41:52.256692,152.0,10.24258651006126,4.99076236248774,2.305690242892061,75.5,87.92,37.77505042682867,-122.41841137885456
2026-03-09 22:41:52.356695,154.0,10.202835972633205,4.9935507198779145,2.276642124542766,76.0,87.84,37.775051415374435,-122.41841152977567
2026-03-09 22:41:52.456698,156.0,10.163004303520538,4.99583972635738,2.2470817713199605,76.5,87.76,37.77505240376879,-122.41841168168526
2026-03-09 22:41:52.556702,158.0,10.123107434859826,4.997629153027395,2.2170158341784125,77.0,87.68,37.77505339201074,-122.41841183458315
2026-03-09 22:41:52.656705,160.0,10.08316132486658,4.998918820946785,2.186451077827141,77.5,87.6,37.77505438009929,-122.41841198846922
2026-03-09 22:41:52.756708,162.0,10.043181951452192,4.999708601149831,2.1553943792073786,78.0,87.52,37.77505536803347,-122.4184121433433
2026-03-09 22:41:52.856711,164.0,10.003185305832973,4.999998414659173,2.1238527259452966,78.5,87.44,37.775056355812275,-122.41841229920524
2026-03-09 22:41:52.956714,166.0,9.963187386133892,4.9997882324937,2.0918332147798133,79.0,87.36,37.77505734343473,-122.41841245605487
2026-03-09 22:41:53.056718,168.0,9.92320419098953,4.999078075671454,2.0593430499658605,79.5,87.28,37.77505833089984,-122.41841261389206
2026-03-09 22:41:53.156721,170.0,9.88325171314484,4.997868015207525,2.0263895416534528,80.0,87.2,37.775059318206615,-122.41841277271662
2026-03-09 22:41:53.256724,172.0,9.84334593305827,4.996158172106952,1.9929801042429403,80.5,87.12,37.775060305354074,-122.41841293252841
2026-03-09 22:41:53.356727,174.0,9.803502812509782,4.99394871735262,1.9591222547167955,81.0,87.03999999999999,37.77506129234123,-122.41841309332727
2026-03-09 22:41:53.456730,176.0,9.763738288216365,4.991239871888162,1.9248236109483234,81.5,86.96,37.775062279167095,-122.41841325511304
2026-03-09 22:41:53.556733,178.0,9.724068265457545,4.988031906595868,1.8900918899876766,82.0,86.88,37.775063265830674,-122.41841341788556
2026-03-09 22:41:53.656736,180.0,9.684508611713502,4.9843251422695944,1.854934906325548,82.5,86.8,37.77506425233099,-122.41841358164464
2026-03-09 22:41:53.756740,182.0,9.645075150318279,4.980119949582684,1.8193605701349451,83.0,86.72,37.77506523866706,-122.41841374639016
2026-03-09 22:41:53.856743,184.0,9.60578365413066,4.975416749050901,1.783376885491431,83.5,86.64,37.775066224837886,-122.41841391212193
2026-03-09 22:41:53.956746,186.0,9.56664983922524,4.97021601099038,1.7469919485722456,84.0,86.56,37.77506721084249,-122.41841407883979
2026-03-09 22:41:54.056749,188.0,9.527689358606207,4.964518255470592,1.7102139458346999,84.5,86.48,37.775068196679875,-122.41841424654356
2026-03-09 22:41:54.156752,190.0,9.488917795946337,4.958324052262343,1.673051152174251,85.0,86.4,37.77506918234907,-122.41841441523309
2026-03-09 22:41:54.256756,192.0,9.450350659353752,4.95163402078079,1.6355119290626947,85.5,86.32,37.77507016784908,-122.4184145849082
2026-03-09 22:41:54.356759,194.0,9.412003375168865,4.944448830023507,1.5976047226668635,86.0,86.24,37.77507115317893,-122.41841475556873
2026-03-09 22:41:54.456763,196.0,9.373891281794059,4.936769198503582,1.5593380619482775,86.5,86.16,37.77507213833761,-122.4184149272145
2026-03-09 22:41:54.556766,198.0,9.336029623558531,4.928595894177768,1.5207205567441604,87.0,86.08,37.77507312332417,-122.41841509984535
2026-03-09 22:41:54.656769,200.0,9.29843354462076,4.919929734369685,1.4817608958302675,87.5,86.0,37.775074108137595,-122.4184152734611
2026-03-09 22:41:54.756772,202.0,9.261118082911047,4.910771585688092,1.4424678449659458,88.0,85.92,37.775075092776916,-122.41841544806157
2026-03-09 22:41:54.856776,204.0,9.224098164116539,4.901122363940227,1.4028502449218714,88.5,85.84,37.775076077241145,-122.41841562364658
2026-03-09 22:41:54.956779,206.0,9.187388595711166,4.890983034040223,1.3629170094909193,89.0,85.76,37.775077061529295,-122.41841580021598
2026-03-09 22:41:55.056782,208.0,9.151004061032834,4.880354609912621,1.322677123482595,89.5,85.68,37.775078045640385,-122.41841597776958
2026-03-09 22:41:55.156785,210.0,9.114959113410295,4.869238154390976,1.2821396407014904,90.0,85.6,37.775079029573426,-122.4184161563072
2026-03-09 22:41:55.256788,212.0,9.079268170342003,4.857634779111576,1.241313681910213,90.5,85.52,37.77508001332744,-122.41841633582867
2026-03-09 22:41:55.356791,214.0,9.043945507729314,4.845545644402281,1.2002084327772584,91.0,85.44,37.775080996901444,-122.4184165163338
2026-03-09 22:41:55.456797,216.0,9.00900525416631,4.832971959166487,1.1588331418102706,91.5,85.36,37.775081980294445,-122.41841669782242
2026-03-09 22:41:55.556800,218.0,8.974461385288553,4.81991498076224,1.117197118275167,92.0,85.28,37.77508296350547,-122.41841688029433
2026-03-09 22:41:55.656803,220.0,8.940327718183013,4.806376014876499,1.0753097301015906,92.5,85.2,37.77508394653353,-122.41841706374936
2026-03-09 22:41:55.756806,222.0,8.906617905861426,4.792356415394571,1.03318040177517,93.0,85.12,37.77508492937764,-122.41841724818734
2026-03-09 22:41:55.856809,224.0,8.87334543179926,4.777857584264719,0.9908186122170486,93.5,85.03999999999999,37.77508591203683,-122.41841743360806
2026-03-09 22:41:55.956812,226.0,8.840523604542513,4.762880971357976,0.9482338926511614,94.0,84.96,37.7750868945101,-122.41841762001135
2026-03-09 22:41:56.056816,228.0,8.808165552384471,4.747428074323152,0.9054358244597598,94.5,84.88,37.775087876796476,-122.41841780739702
2026-03-09 22:41:56.156819,230.0,8.776284218114561,4.731500438437072,0.8624340370276331,95.0,84.8,37.77508885889498,-122.41841799576488
2026-03-09 22:41:56.256822,232.0,8.744892353841413,4.715099656450052,0.8192382055755432,95.5,84.72,37.77508984080462,-122.41841818511475
2026-03-09 22:41:56.356825,234.0,8.714002515892183,4.6982273684266245,0.7758580489833324,96.0,84.64,37.77509082252442,-122.41841837544642
2026-03-09 22:41:56.456828,236.0,8.68362705979019,4.680885261581531,0.7323033276032271,96.5,84.56,37.7750918040534,-122.41841856675973
2026-03-09 22:41:56.556831,238.0,8.653778135312876,4.663075070111002,0.6885838410637939,97.0,84.48,37.77509278539058,-122.41841875905446
2026-03-09 22:41:56.656835,240.0,8.624467681632053,4.644798575019347,0.6447094260650613,97.5,84.4,37.775093766534965,-122.41841895233044
2026-03-09 22:41:56.756838,242.0,8.59570742253839,4.626057603940842,0.6006899541653116,98.0,84.32,37.77509474748559,-122.41841914658747
2026-03-09 22:41:56.856841,244.0,8.567508861752058,4.606854030956978,0.5565353295600164,98.5,84.24,37.77509572824146,-122.41841934182536
2026-03-09 22:41:56.956844,246.0,8.539883278321401,4.5871897764090495,0.5122554868534372,99.0,84.16,37.77509670880161,-122.41841953804389
2026-03-09 22:41:57.056847,248.0,8.512841722111451,4.567066806706126,0.4678603888233765,99.5,84.08,37.77509768916505,-122.41841973524289
2026-03-09 22:41:57.156850,250.0,8.486395009384143,4.546487134128409,0.4233600241796016,100.0,84.0,37.775098669330795,-122.41841993342216
2026-03-09 22:41:57.256854,252.0,8.460553718471951,4.525452816626005,0.37876440531642447,100.5,83.92,37.77509964929788,-122.41842013258149
2026-03-09 22:41:57.356857,254.0,8.435328185546695,4.503965957613136,0.33408356605995004,101.0,83.84,37.77510062906531,-122.41842033272069
2026-03-09 22:41:57.456861,256.0,8.410728500485206,4.4820287057577985,0.2893275594105167,101.5,83.75999999999999,37.775101608632106,-122.41842053383955
2026-03-09 22:41:57.556864,258.0,8.386764502833518,4.459643254766898,0.24450645528080736,102.0,83.68,37.7751025879973,-122.41842073593789
2026-03-09 22:41:57.656867,260.0,8.36344577787118,4.436811843166877,0.19963033823016513,102.5,83.6,37.77510356715991,-122.41842093901548
2026-03-09 22:41:57.756870,262.0,8.340781652777258,4.41353675407987,0.1547093051956039,103.0,83.52,37.775104546118946,-122.41842114307214
2026-03-09 22:41:57.856873,264.0,8.31878119289961,4.389820314995391,0.10975346322004867,103.5,83.44,37.77510552487344,-122.41842134810764
2026-03-09 22:41:57.956876,266.0,8.297453198128851,4.365664897537583,0.06477292717828788,104.0,83.36,37.77510650342241,-122.4184215541218
2026-03-09 22:41:58.056880,268.0,8.27680619937852,4.341072917228063,0.019777817501172038,104.5,83.28,37.77510748176487,-122.41842176111442
2026-03-09 22:41:58.156883,270.0,8.256848455172824,4.316046833244369,-0.025221742101445857,105.0,83.2,37.77510845989985,-122.41842196908527
2026-03-09 22:41:58.256886,272.0,8.23758794834335,4.290589148174044,-0.07021562691849434,105.5,83.12,37.77510943782637,-122.41842217803415
2026-03-09 22:41:58.356889,274.0,8.219032382836023,4.264702407764381,-0.1151937135157048,106.0,83.03999999999999,37.77511041554345,-122.41842238796086
2026-03-09 22:41:58.456892,276.0,8.201189180629644,4.238389200667849,-0.1601458820133454,106.5,82.96000000000001,37.775111393050125,-122.41842259886516
2026-03-09 22:41:58.556895,278.0,8.18406547876719,4.211652158183228,-0.20506201836314333,107.0,82.88,37.7751123703454,-122.41842281074689
2026-03-09 22:41:58.656898,280.0,8.16766812650109,4.184493953992488,-0.24993201662390852,107.5,82.8,37.7751133474283,-122.41842302360578
2026-03-09 22:41:58.756902,282.0,8.152003682553625,4.156917303893415,-0.29474578123532474,108.0,82.72,37.77511432429786,-122.41842323744167
2026-03-09 22:41:58.856905,284.0,8.137078412493516,4.128924965528041,-0.3394932292894138,108.5,82.64,37.7751153009531,-122.41842345225432
2026-03-09 22:41:58.956908,286.0,8.122898286229784,4.10051973810687,-0.38416429279913905,109.0,82.56,37.775116277393025,-122.4184236680435
2026-03-09 22:41:59.056911,288.0,8.109468975623873,4.07170446212898,-0.4287489209636641,109.5,82.48,37.775117253616685,-122.41842388480903
2026-03-09 22:41:59.156914,290.0,8.096795852220968,4.0424820190979505,-0.4732370824297446,110.0,82.4,37.77511822962308,-122.41842410255066
2026-03-09 22:41:59.256917,292.0,8.084883985101458,4.0128553312337365,-0.5176187675487324,110.5,82.32,37.77511920541126,-122.4184243212682
2026-03-09 22:41:59.356921,294.0,8.073738138853367,3.9828273611804326,-0.5618839906287095,111.0,82.24,37.775120180980224,-122.41842454096141
2026-03-09 22:41:59.456924,296.0,8.063362771666586,3.952401111710024,-0.6060227921812242,111.5,82.16,37.77512115632901,-122.41842476163009
2026-03-09 22:41:59.556927,298.0,8.053762033549653,3.9215796254220994,-0.6500252411621389,112.0,82.08,37.775122131456634,-122.418424983274
2026-03-09 22:41:59.656930,300.0,8.044939764669806,3.890365984439606,-0.6938814372060654,112.5,82.0,37.77512310636214,-122.41842520589293
2026-03-09 22:41:59.756933,302.0,8.03689949381697,3.8587633101006285,-0.7375815128539098,113.0,81.92,37.775124081044524,-122.41842542948665
2026-03-09 22:41:59.856936,304.0,8.029644436992282,3.8267747626462674,-0.7811156357730119,113.5,81.84,37.77512505550283,-122.41842565405494
2026-03-09 22:41:59.956940,306.0,8.02317749612174,3.794403540904609,-0.824474010969372,114.0,81.75999999999999,37.77512602973609,-122.41842587959758
2026-03-09 22:42:00.056943,308.0,8.017501257895466,3.761652881970854,-0.8676468829914876,114.5,81.68,37.775127003743314,-122.41842610611434
2026-03-09 22:42:00.156946,310.0,8.012617992733071,3.7285260608836,-0.9106245381252867,115.0,81.6,37.77512797752354,-122.41842633360498
2026-03-09 22:42:00.256949,312.0,8.00852965387551,3.695026390297354,-0.9533973065796773,115.5,81.52,37.77512895107578,-122.41842656206931
2026-03-09 22:42:00.356952,314.0,8.005237876603813,3.661157220151257,-0.9959555646622023,116.0,81.44,37.775129924399074,-122.41842679150706
2026-03-09 22:42:00.456967,316.0,8.002743977585002,3.6269219373340977,-1.0382897369443331,116.5,81.36,37.775130897492446,-122.41842702191803
2026-03-09 22:42:00.556972,318.0,8.001048954345432,3.5923239653456314,-1.0803902984159044,117.0,81.28,37.77513187035491,-122.41842725330197
2026-03-09 22:42:00.656976,320.0,8.000153484871799,3.5573667639542217,-1.1222477766281946,117.5,81.2,37.77513284298551,-122.41842748565867
2026-03-09 22:42:00.756979,322.0,8.00005792733995,3.522053828850881,-1.163852753825191,118.0,81.12,37.77513381538327,-122.41842771898787
2026-03-09 22:42:00.857000,324.0,8.00076231997163,3.486388691299689,-1.2051958690625422,118.5,81.03999999999999,37.775134787547216,-122.41842795328935
2026-03-09 22:42:00.957009,326.0,8.002266381019172,3.450374917784682,-1.2462678203137376,119.0,80.96000000000001,37.77513575947637,-122.41842818856288
2026-03-09 22:42:01.057012,328.0,8.004569508878213,3.4140161096531987,-1.2870593665630152,119.5,80.88,37.775136731169766,-122.41842842480823
2026-03-09 22:42:01.157016,330.0,8.007670782328319,3.377315902755755,-1.3275613298845563,120.0,80.8,37.77513770262643,-122.41842866202515
2026-03-09 22:42:01.257019,332.0,8.011568960901457,3.3402779670824545,-1.3677645975074815,120.5,80.72,37.77513867384539,-122.4184289002134
2026-03-09 22:42:01.357022,334.0,8.016262485378174,3.302906006396004,-1.4076601238661814,121.0,80.64,37.77513964482568,-122.41842913937276
2026-03-09 22:42:01.457026,336.0,8.02174947841126,3.265203757861324,-1.4472389326355328,121.5,80.56,37.77514061556632,-122.41842937950297
2026-03-09 22:42:01.557029,338.0,8.02802774527666,3.2271749916718537,-1.4864921187505336,122.0,80.48,37.77514158606635,-122.4184296206038
2026-03-09 22:42:01.657032,340.0,8.035094774751336,3.1888235106725182,-1.5254108504099084,122.5,80.4,37.77514255632479,-122.41842986267503
2026-03-09 22:42:01.757035,342.0,8.042947740117723,3.1501531499794613,-1.5639863710632196,123.0,80.32,37.77514352634068,-122.41843010571638
2026-03-09 22:42:01.857039,344.0,8.051583500294381,3.111167776596523,-1.6022100013810594,123.5,80.24,37.775144496113036,-122.41843034972763
2026-03-09 22:42:01.957042,346.0,8.060998601092383,3.0718712890285587,-1.6400731412078606,124.0,80.16,37.7751454656409,-122.41843059470852
2026-03-09 22:42:02.057058,348.0,8.07118927659694,3.0322676168915734,-1.6775672714968974,124.5,80.08,37.77514643492329,-122.41843084065883
2026-03-09 22:42:02.157061,350.0,8.082151450673724,2.992360720519782,-1.7146839562270313,125.0,80.0,37.77514740395926,-122.41843108757828
2026-03-09 22:42:02.257064,352.0,8.093880738599266,2.952154590569563,-1.7514148443007818,125.5,79.92,37.775148372747815,-122.41843133546666
2026-03-09 22:42:02.357068,354.0,8.106372448814781,2.9116532476204093,-1.7877516714232917,126.0,79.84,37.775149341288,-122.4184315843237
2026-03-09 22:42:02.457071,356.0,8.119621584802744,2.8708607417728613,-1.823686261961752,126.5,79.75999999999999,37.77515030957885,-122.41843183414915
2026-03-09 22:42:02.557074,358.0,8.133622847085405,2.829781152243514,-1.8592105307848898,127.0,79.68,37.77515127761938,-122.41843208494278
2026-03-09 22:42:02.657077,360.0,8.148370635344536,2.788418586957083,-1.8943164850820853,127.5,79.6,37.775152245408634,-122.41843233670431
2026-03-09 22:42:02.757080,362.0,8.163859050661467,2.746777182135633,-1.9289962261617264,128.0,79.52,37.775153212945646,-122.41843258943351
2026-03-09 22:42:02.857083,364.0,8.18008189787658,2.704861101884943,-1.9632419512283728,128.5,79.44,37.77515418022945,-122.41843284313012
2026-03-09 22:42:02.957087,366.0,8.19703268806729,2.6626745377781056,-1.9970459551383566,129.0,79.36,37.77515514725906,-122.41843309779388
2026-03-09 22:42:03.057090,368.0,8.21470464114353,2.6202217084363806,-2.03040063213341,129.5,79.28,37.775156114033535,-122.41843335342455
2026-03-09 22:42:03.157093,370.0,8.233090688559694,2.577506859107321,-2.063298477551921,130.0,79.2,37.77515708055189,-122.41843361002186
2026-03-09 22:42:03.257097,372.0,8.252183476141955,2.534534261240267,-2.095732089517459,130.5,79.12,37.77515804681317,-122.41843386758556
2026-03-09 22:42:03.357100,374.0,8.271975367029851,2.491308212059193,-2.1276941706041574,131.0,79.03999999999999,37.7751590128164,-122.4184341261154
2026-03-09 22:42:03.457103,376.0,8.292458444730913,2.4478330341329975,-2.1591775294786135,131.5,78.96000000000001,37.775159978560616,-122.4184343856111
2026-03-09 22:42:03.557106,378.0,8.313624516287167,2.404113074943241,-2.1901750825178987,132.0,78.88,37.775160944044856,-122.41843464607244
2026-03-09 22:42:03.657109,380.0,8.335465115552198,2.360152706449413,-2.2206798554033487,132.5,78.8,37.77516190926815,-122.41843490749912
2026-03-09 22:42:03.757113,382.0,8.357971506577506,2.315956324651726,-2.250684984689756,133.0,78.72,37.77516287422954,-122.41843516989088
2026-03-09 22:42:03.857116,384.0,8.381134687106762,2.271528349151532,-2.2801837193496146,133.5,78.64,37.77516383892805,-122.41843543324748
2026-03-09 22:42:03.957121,386.0,8.404945392176591,2.2268732227093557,-2.3091694222920713,134.0,78.56,37.77516480336272,-122.41843569756865
2026-03-09 22:42:04.057125,388.0,8.429394097822438,2.1819954108006314,-2.33763557185625,134.5,78.48,37.77516576753259,-122.41843596285412
2026-03-09 22:42:04.157129,390.0,8.454471024888026,2.136899401169149,-2.365575763278585,135.0,78.4,37.77516673143669,-122.41843622910363
2026-03-09 22:42:04.257132,392.0,8.480166142936877,2.091589703378295,-2.3929837101338802,135.5,78.32,37.77516769507406,-122.41843649631691
2026-03-09 22:42:04.357135,394.0,8.506469174264375,2.0460708483600865,-2.4198532457497217,136.0,78.24,37.77516865844374,-122.41843676449369
2026-03-09 22:42:04.457138,396.0,8.533369598008687,2.0003473879620977,-2.4461783245939466,136.5,78.16,37.775169621544755,-122.41843703363371
2026-03-09 22:42:04.557141,398.0,8.560856654358986,1.954423894492261,-2.4719530236348755,137.0,78.08,37.77517058437615,-122.4184373037367
2026-03-09 22:42:04.657144,400.0,8.588919348859216,1.9083049602616586,-2.4971715436739617,137.5,78.0,37.77517154693696,-122.41843757480237
2026-03-09 22:42:04.757147,402.0,8.617546456805748,1.8619951971252766,-2.5218282106505834,138.0,77.92,37.77517250922622,-122.41843784683047
2026-03-09 22:42:04.857151,404.0,8.646726527737087,1.8154992360208415,-2.545917476918693,138.5,77.84,37.77517347124298,-122.41843811982073
2026-03-09 22:42:04.957154,406.0,8.676447890013925,1.7688217265057136,-2.5694339224950036,139.0,77.75999999999999,37.77517443298626,-122.41843839377286
2026-03-09 22:42:05.057157,408.0,8.706698655487633,1.7219673362919499,-2.5923722562784706,139.5,77.68,37.77517539445511,-122.4184386686866
2026-03-09 22:42:05.157160,410.0,8.73746672425536,1.6749407507795233,-2.6147273172407646,140.0,77.6,37.77517635564857,-122.41843894456169
2026-03-09 22:42:05.257163,412.0,8.768739789499827,1.6277466725878,-2.636494075587476,140.5,77.52,37.77517731656567,-122.41843922139782
2026-03-09 22:42:05.357166,414.0,8.800505342411913,1.580389821085269,-2.657667633889807,141.0,77.44,37.77517827720545,-122.41843949919472
2026-03-09 22:42:05.457169,416.0,8.832750677193985,1.5328749319176147,-2.6782432281864645,141.5,77.36,37.77517923756696,-122.41843977795213
2026-03-09 22:42:05.557173,418.0,8.865462896142063,1.485206756534162,-2.698216229055533,142.0,77.28,37.77518019764923,-122.41844005766977
2026-03-09 22:42:05.657176,420.0,8.898628914804725,1.437390061712722,-2.7175821426560787,142.5,77.2,37.7751811574513,-122.41844033834734
2026-03-09 22:42:05.757179,422.0,8.932235467216712,1.389429629082934,-2.736336611739241,143.0,77.12,37.77518211697221,-122.41844061998458
2026-03-09 22:42:05.857182,424.0,8.966269111205143,1.3413302546480896,-2.7544754166285945,143.5,77.03999999999999,37.77518307621101,-122.4184409025812
2026-03-09 22:42:05.957185,426.0,9.000716233766195,1.2930967483055542,-2.7719944761695636,144.0,76.96000000000001,37.77518403516673,-122.4184411861369
2026-03-09 22:42:06.057188,428.0,9.035563056510137,1.2447339333657628,-2.788889848647658,144.5,76.88,37.775184993838415,-122.41844147065143
2026-03-09 22:42:06.157191,430.0,9.070795641172484,1.1962466460699122,-2.8051577326753474,145.0,76.8,37.77518595222511,-122.41844175612448
2026-03-09 22:42:06.257194,432.0,9.10639989518914,1.147639735106321,-2.820794468047356,145.5,76.72,37.77518691032585,-122.41844204255578
2026-03-09 22:42:06.357197,434.0,9.142361577333208,1.0989180611255847,-2.8357965365641897,146.0,76.64,37.775187868139675,-122.41844232994504
2026-03-09 22:42:06.457201,436.0,9.178666303411319,1.0500864962544958,-2.8501605628237243,146.5,76.56,37.77518882566564,-122.41844261829196
2026-03-09 22:42:06.557204,438.0,9.215299552017092,1.0011499236088526,-2.863883314980649,147.0,76.48,37.77518978290277,-122.41844290759627
2026-03-09 22:42:06.657207,440.0,9.252246670339527,0.9521132368051353,-2.876961705473619,147.5,76.4,37.775190739850125,-122.41844319785767
2026-03-09 22:42:06.757210,442.0,9.289492880023914,0.9029813394711645,-2.889392791719949,148.0,76.32,37.77519169650674,-122.41844348907588
2026-03-09 22:42:06.857213,444.0,9.327023283082992,0.8537591447557267,-2.9011737767776773,148.5,76.24,37.77519265287165,-122.41844378125059
2026-03-09 22:42:06.957216,446.0,9.36482286785593,0.8044515748372788,-2.912302009974865,149.0,76.16,37.775193608943916,-122.41844407438153
2026-03-09 22:42:07.057219,448.0,9.402876515012814,0.7550635604317192,-2.92277498750599,149.5,76.08,37.775194564722575,-122.41844436846839
2026-03-09 22:42:07.157222,120.70560004029933,9.441169003602148,0.7056000402993361,-2.932590352995291,150.0,76.0,37.775195520206665,-122.41844466351087
2026-03-09 22:42:07.257226,120.65606596075092,9.479685017139063,0.6560659607509189,-2.941745898026941,150.5,75.92,37.775196475395234,-122.41844495950869
2026-03-09 22:42:07.357229,120.60646627515315,9.518409149731681,0.6064662751531488,-2.9502395626419324,151.0,75.84,37.77519743028733,-122.41844525646157
2026-03-09 22:42:07.457232,120.55680594343325,9.557325912243282,0.556805943433248,-2.9580694358015585,151.5,75.75999999999999,37.77519838488199,-122.41844555436917
2026-03-09 22:42:07.557235,120.50708993158301,9.596419738487743,0.5070899315830093,-2.9652337558173913,152.0,75.68,37.77519933917827,-122.41844585323123
2026-03-09 22:42:07.657238,120.45732321116219,9.63567499145581,0.4573232111621838,-2.971730910747652,152.5,75.6,37.77520029317521,-122.41844615304743
2026-03-09 22:42:07.757241,120.40751075880135,9.675075969569692,0.4075107588013456,-2.9775594387598896,153.0,75.52,37.77520124687186,-122.41844645381748
2026-03-09 22:42:07.857244,120.35765755570422,9.714606912963484,0.3576575557042163,-2.9827180284598906,153.5,75.44,37.77520220026726,-122.41844675554107
2026-03-09 22:42:07.957247,120.30776858714957,9.7542520097869,0.30776858714956573,-2.987205519186736,154.0,75.36,37.77520315336046,-122.41844705821791
2026-03-09 22:42:08.057252,120.25784884199267,9.793995402529804,0.2578488419926732,-2.991020901273943,154.5,75.28,37.775204106150504,-122.4184473618477
2026-03-09 22:42:08.157256,120.20790331216645,9.833821194365008,0.20790331216645247,-2.994163316276638,155.0,75.2,37.775205058636445,-122.41844766643011
2026-03-09 22:42:08.257259,120.15793699218227,9.873713455506774,0.15793699218226948,-2.9966320571647027,155.5,75.12,37.77520601081733,-122.41844797196487
2026-03-09 22:42:08.357262,120.10795487863048,9.913656229582543,0.1079548786304798,-2.998426568481852,156.0,75.03999999999999,37.7752069626922,-122.41844827845165
2026-03-09 22:42:08.457265,120.05796196968079,9.953633540015241,0.05796196968079138,-2.99954644647061,156.5,74.96000000000001,37.77520791426011,-122.41844858589015
2026-03-09 22:42:08.557268,120.00796326458243,9.993629396413723,0.00796326458243414,-2.999991439163154,157.0,74.88,37.7752088655201,-122.41844889428006
2026-03-09 22:42:08.657271,119.95796376316426,10.033627800968699,-0.04203623683574309,-2.999761446438005,157.5,74.8,37.77520981647123,-122.41844920362108
2026-03-09 22:42:08.757275,119.90796846533473,10.073612754851654,-0.09203153466526905,-2.9988565200425565,158.0,74.72,37.77521076711254,-122.4184495139129
2026-03-09 22:42:08.857278,119.85798237058198,10.113568264614155,-0.14201762941801896,-2.997276863581429,158.5,74.64,37.775211717443085,-122.41844982515521
2026-03-09 22:42:08.957281,119.80801047747383,10.153478348585038,-0.1919895225261769,-2.9950228324706627,159.0,74.56,37.775212667461915,-122.41845013734768
2026-03-09 22:42:09.057284,119.75805778315792,10.193327043262835,-0.24194221684207073,-2.9920949338577483,159.5,74.48,37.77521361716808,-122.41845045049003
2026-03-09 22:42:09.157287,119.7081292828621,10.233098409700988,-0.2918707171379004,-2.988493826507522,160.0,74.4,37.77521456656062,-122.41845076458192
2026-03-09 22:42:09.257290,119.65822996939477,10.272776539883195,-0.3417700306052389,-2.9842203206539453,160.5,74.32,37.77521551563859,-122.41845107962304
2026-03-09 22:42:09.357293,119.60836483264568,10.312345563086424,-0.39163516735432646,-2.9792753778178063,161.0,74.24,37.775216464401055,-122.41845139561309
2026-03-09 22:42:09.457296,119.55853885908697,10.351789652228968,-0.441461140913038,-2.973660110590382,161.5,74.16,37.775217412847056,-122.41845171255174
2026-03-09 22:42:09.557300,119.50875703127446,10.39109303020109,-0.4912429687255434,-2.96737578238311,162.0,74.08,37.775218360975636,-122.41845203043867
2026-03-09 22:42:09.657303,119.45902432734945,10.430239976175631,-0.5409756726505419,-2.9604238071433233,162.5,74.0,37.77521930878586,-122.41845234927358
2026-03-09 22:42:09.757306,119.40934572054091,10.469214831896162,-0.590654279459089,-2.952805749036125,163.0,73.92,37.775220256276775,-122.41845266905614
2026-03-09 22:42:09.857309,119.3597261786681,10.508002007940046,-0.6402738213318984,-2.944523322092448,163.5,73.84,37.77522120344743,-122.41845298978603
2026-03-09 22:42:09.957312,119.31017066364386,10.546585989954027,-0.6898293363561364,-2.935578389823416,164.0,73.75999999999999,37.775222150296884,-122.41845331146293
2026-03-09 22:42:10.057315,119.2606841309784,10.58495134485974,-0.7393158690215926,-2.9259729648010513,164.5,73.68,37.77522309682419,-122.41845363408652
2026-03-09 22:42:10.157319,119.21127152928376,10.623082727026757,-0.7887284707162433,-2.9157092082054623,165.0,73.6,37.775224043028395,-122.41845395765647
2026-03-09 22:42:10.257322,119.16193779977891,10.660964884410621,-0.8380622002210916,-2.9047894293385834,165.5,73.52,37.77522498890856,-122.41845428217246
2026-03-09 22:42:10.357325,119.1126878757957,10.698582664653472,-0.8873121242043029,-2.893216085104592,166.0,73.44,37.775225934463734,-122.41845460763417
2026-03-09 22:42:10.457328,119.06352668228548,10.735921021144769,-0.9364733177145158,-2.8809917794571156,166.5,73.36,37.77522687969298,-122.41845493404128
2026-03-09 22:42:10.557331,119.01445913532665,10.77296501903976,-0.9855408646733492,-2.8681192628133543,167.0,73.28,37.77522782459534,-122.41845526139345
2026-03-09 22:42:10.657334,118.965490141633,10.809699841233197,-1.0345098583669987,-2.8546014314352477,167.5,73.2,37.77522876916988,-122.41845558969037
2026-03-09 22:42:10.757337,118.9166245980631,10.846110794285993,-1.0833754019368982,-2.840441326777827,168.0,73.12,37.77522971341564,-122.41845591893168
2026-03-09 22:42:10.857340,118.86786739113059,10.882183314302404,-1.1321326088694157,-2.8256421348049034,168.5,73.03999999999999,37.7752306573317,-122.41845624911709
2026-03-09 22:42:10.957344,118.81922339651551,10.91790297275538,-1.1807766034844849,-2.8102071852722377,169.0,72.96000000000001,37.775231600917095,-122.41845658024624
2026-03-09 22:42:11.057347,118.77069747857682,10.953255482257799,-1.2293025214231852,-2.7941399509783573,169.5,72.88,37.77523254417089,-122.4184569123188
2026-03-09 22:42:11.157350,118.72229448986585,10.988226702277217,-1.2777055101341561,-2.7774440469831974,170.0,72.8,37.775233487092144,-122.41845724533447
2026-03-09 22:42:11.257353,118.67401927064114,11.022802644791906,-1.3259807293588668,-2.7601232297947194,170.5,72.72,37.775234429679905,-122.41845757929288
2026-03-09 22:42:11.357356,118.62587664838438,11.056969479885861,-1.3741233516156202,-2.742181396523721,171.0,72.64,37.77523537193324,-122.41845791419371
2026-03-09 22:42:11.457359,118.57787143731768,11.090713541280603,-1.4221285626823126,-2.7236225840069954,171.5,72.56,37.77523631385121,-122.41845825003664
2026-03-09 22:42:11.557363,118.53000843792216,11.124021331801487,-1.469991562077838,-2.7044509678990645,172.0,72.48,37.775237255432856,-122.4184585868213
2026-03-09 22:42:11.657366,118.48229243645785,11.1568795287764,-1.5177075635421466,-2.684670861732674,172.5,72.4,37.77523819667725,-122.4184589245474
2026-03-09 22:42:11.757369,118.43472820448515,11.189274989364657,-1.565271795514851,-2.664286715948264,173.0,72.32,37.77523913758345,-122.41845926321454
2026-03-09 22:42:11.857372,118.38732049838761,11.221194755813958,-1.612679501612395,-2.6433031168926395,173.5,72.24,37.77524007815051,-122.41845960282244
2026-03-09 22:42:11.957375,118.34007405889633,11.252626060643312,-1.6599259411036704,-2.621724785787067,174.0,72.16,37.77524101837749,-122.41845994337073
2026-03-09 22:42:12.057378,118.2929936106159,11.283556331749867,-1.7070063893841048,-2.599556577665011,174.5,72.08,37.77524195826345,-122.41846028485908
2026-03-09 22:42:12.157381,118.2460838615519,11.313973197437578,-1.7539161384480992,-2.576803480279776,175.0,72.0,37.77524289780746,-122.41846062728715
2026-03-09 22:42:12.257385,118.19934950264016,11.343864491365725,-1.8006504973598427,-2.5534706129822875,175.5,71.92,37.77524383700857,-122.41846097065458
2026-03-09 22:42:12.357388,118.15279520727762,11.373218257415276,-1.8472047927223856,-2.5295632255692517,176.0,71.84,37.775244775865836,-122.41846131496105
2026-03-09 22:42:12.457392,118.10642563085501,11.402022754471197,-1.8935743691449902,-2.5050866971019756,176.5,71.75999999999999,37.77524571437833,-122.4184616602062
2026-03-09 22:42:12.557398,118.06024541029134,11.430266461118716,-1.9397545897086514,-2.480046534696109,177.0,71.68,37.77524665254511,-122.41846200638969
2026-03-09 22:42:12.657402,118.0142591635702,11.457938080251752,-1.985740836429801,-2.454448372282551,177.5,71.6,37.77524759036524,-122.41846235351117
2026-03-09 22:42:12.757405,117.96847148927792,11.485026543591603,-2.031528510722084,-2.4282979693398583,178.0,71.52,37.775248527837775,-122.4184627015703
2026-03-09 22:42:12.857408,117.92288696614376,11.51152101611411,-2.0771130338562314,-2.401601209598369,178.5,71.44,37.77524946496178,-122.41846305056674
2026-03-09 22:42:12.957411,117.87751015258209,11.537410900383511,-2.122489847417913,-2.374364099716398,179.0,71.36,37.77525040173633,-122.41846340050012
2026-03-09 22:42:13.057414,117.83234558623641,11.5626858407913,-2.1676544137635885,-2.3465927679287653,179.5,71.28,37.77525133816047,-122.4184637513701
2026-03-09 22:42:13.157417,117.78739778352573,11.587335727698306,-2.2126022164742625,-2.318293462667963,180.0,71.2,37.775252274233274,-122.41846410317632
2026-03-09 22:42:13.257420,117.74267123919289,11.611350701478427,-2.2573287608071158,-2.289472551158286,180.5,71.12,37.77525320995381,-122.41846445591844
2026-03-09 22:42:13.357423,117.69817042585501,11.634721156462346,-2.3018295741449917,-2.2601365179832396,181.0,71.03999999999999,37.77525414532113,-122.4184648095961
2026-03-09 22:42:13.457426,117.65389979355636,11.65743774477967,-2.346100206443636,-2.2302919636265264,181.5,70.96000000000001,37.775255080334304,-122.41846516420897
2026-03-09 22:42:13.557430,117.60986376932328,11.67949138009796,-2.390136230676714,-2.1999456029869693,182.0,70.88,37.7752560149924,-122.41846551975665
2026-03-09 22:42:13.657433,117.5660667567215,11.70087324125713,-2.433933243278497,-2.169104263867693,182.5,70.8,37.77525694929448,-122.41846587623883
2026-03-09 22:42:13.757436,117.52251313541578,11.721574775797803,-2.4774868645842245,-2.1377748854398844,183.0,70.72,37.77525788323961,-122.41846623365512
2026-03-09 22:42:13.857439,117.47920726073194,11.741587703382182,-2.5207927392680576,-2.105964516681524,183.5,70.64,37.775258816826856,-122.41846659200519
2026-03-09 22:42:13.957442,117.43615346322139,11.760904019106068,-2.5638465367786187,-2.0736803147913814,184.0,70.56,37.77525975005529,-122.41846695128866
2026-03-09 22:42:14.057445,117.39335604822797,11.77951599670072,-2.6066439517720323,-2.040929543578682,184.5,70.48,37.77526068292397,-122.41846731150518
2026-03-09 22:42:14.157448,117.35081929545753,11.797416191623254,-2.649180704542467,-2.007719571828786,185.0,70.4,37.775261615431965,-122.41846767265439
2026-03-09 22:42:14.257451,117.30854745854991,11.814597444034368,-2.691452541450088,-1.9740578716452324,185.5,70.32,37.77526254757835,-122.41846803473592
2026-03-09 22:42:14.357454,117.26654476465356,11.83105288166218,-2.733455235346436,-1.9399520167685504,186.0,70.24,37.77526347936219,-122.41846839774942
2026-03-09 22:42:14.457457,117.22481541400288,11.846775922551037,-2.775184585997119,-1.905409680872209,186.5,70.16,37.77526441078254,-122.41846876169453
2026-03-09 22:42:14.557461,117.18336357949815,11.861760277694227,-2.81663642050185,-1.870438635836058,187.0,70.08,37.775265341838484,-122.41846912657087
2026-03-09 22:42:14.657464,117.14219340628829,11.875999953549478,-2.8578065937117185,-1.8350467499976955,187.5,70.0,37.77526627252909,-122.41846949237808
2026-03-09 22:42:14.757467,117.10130901135628,11.889489254436308,-2.8986909886437155,-1.7992419863821314,188.0,69.92,37.77526720285342,-122.4184698591158
2026-03-09 22:42:14.857470,117.06071448310759,11.902222784814217,-2.9392855168924137,-1.7630324009101264,188.5,69.84,37.775268132810545,-122.41847022678367
2026-03-09 22:42:14.957473,117.02041388096117,11.914195451440834,-2.9795861190388213,-1.7264261405856516,189.0,69.75999999999999,37.775269062399545,-122.41847059538131
2026-03-09 22:42:15.057476,116.9804112349437,11.92540246540914,-3.019588765056303,-1.6894314416628524,189.5,69.68,37.775269991619474,-122.41847096490834
2026-03-09 22:42:15.157479,116.94071054528641,11.935839344062973,-3.0592894547135963,-1.6520566277929127,190.0,69.6,37.77527092046942,-122.41847133536442
2026-03-09 22:42:15.257482,116.90131578202518,11.945501912790027,-3.0986842179748164,-1.6143101081512834,190.5,69.52,37.775271848948435,-122.41847170674916
2026-03-09 22:42:15.357485,116.86223088460353,11.954386306691646,-3.137769115396469,-1.57620037554564,191.0,69.44,37.775272777055605,-122.4184720790622
2026-03-09 22:42:15.457488,116.82345976147862,11.962488972128725,-3.176540238521378,-1.5377360045050419,191.5,69.36,37.77527370479,-122.41847245230315
2026-03-09 22:42:15.557491,116.78500628973046,11.969806668143121,-3.2149937102695443,-1.4989256493507073,192.0,69.28,37.77527463215069,-122.41847282647164
2026-03-09 22:42:15.657495,116.74687431467416,11.976336467754,-3.253125685325837,-1.4597780422488142,192.5,69.2,37.77527555913675,-122.41847320156732
2026-03-09 22:42:15.757498,116.70906764947547,11.98207575912858,-3.2909323505245247,-1.4203019912458053,193.0,69.12,37.77527648574725,-122.4184735775898
2026-03-09 22:42:15.857501,116.6715900747694,11.987022246626832,-3.328409925230596,-1.3805063782866223,193.5,69.03999999999999,37.775277411981264,-122.4184739545387
2026-03-09 22:42:15.957504,116.63444533828219,11.99117395171971,-3.3655546617178085,-1.3404001572162925,194.0,68.96000000000001,37.77527833783786,-122.41847433241364
2026-03-09 22:42:16.057538,116.59763715445654,11.994529213780531,-3.40236284554347,-1.2999923517653573,194.5,68.88,37.77527926331613,-122.41847471121424
2026-03-09 22:42:16.157542,116.56116920408013,11.99708669074921,-3.438830795919869,-1.259292053519579,195.0,68.8,37.775280188415124,-122.41847509094013
2026-03-09 22:42:16.257545,116.52504513391764,11.998845359669057,-3.47495486608236,-1.218308419874355,195.5,68.72,37.775281113133936,-122.41847547159095
2026-03-09 22:42:16.357548,116.48926855634598,11.999804517095951,-3.510731443654027,-1.1770506719743616,196.0,68.64,37.775282037471634,-122.41847585316629
2026-03-09 22:42:16.457551,116.45384304899306,11.999963779379712,-3.546156951006931,-1.1355280926388194,196.5,68.56,37.775282961427294,-122.41847623566576
2026-03-09 22:42:16.557555,116.41877215438015,11.999323082817549,-3.5812278456198525,-1.093750024272904,197.0,68.48,37.77528388499999,-122.418476619089
2026-03-09 22:42:16.657558,116.38405937956745,11.997882683679544,-3.6159406204325606,-1.0517258667657532,197.5,68.4,37.77528480818881,-122.41847700343563
2026-03-09 22:42:16.757561,116.3497081958035,11.995643158106148,-3.6502918041964976,-1.0094650753755152,198.0,68.32,37.77528573099282,-122.41847738870526
2026-03-09 22:42:16.857564,116.31572203817808,11.992605401877732,-3.684277961821916,-0.9669771586019641,198.5,68.24,37.775286653411094,-122.4184777748975
2026-03-09 22:42:16.957567,116.28210430527862,11.988770630056282,-3.7178956947213733,-0.9242716760471343,199.0,68.16,37.77528757544272,-122.41847816201195
2026-03-09 22:42:17.057571,116.24885835885041,11.984140376499395,-3.7511416411495944,-0.881358236264436,199.5,68.08,37.77528849708676,-122.41847855004825
2026-03-09 22:42:17.157574,116.21598752346036,11.978716493246763,-3.7840124765396412,-0.8382464945967776,200.0,68.0,37.77528941834231,-122.418478939006
2026-03-09 22:42:17.257582,116.18349508616464,11.972501149779367,-3.8165049138353666,-0.7949461510041635,200.5,67.92,37.77529033920844,-122.4184793288848
2026-03-09 22:42:17.357586,116.15138429617988,11.965496832151723,-3.848615703820122,-0.7514669478812273,201.0,67.84,37.77529125968424,-122.41847971968429
2026-03-09 22:42:17.457589,116.11965836455833,11.957706341997495,-3.8803416354416616,-0.7078186678652427,201.5,67.75999999999999,37.77529217976877,-122.41848011140404
2026-03-09 22:42:17.557592,116.08832046386674,11.94913279540887,-3.911679536133264,-0.6640111316350786,202.0,67.68,37.77529309946112,-122.41848050404369
2026-03-09 22:42:17.657595,116.05737372786902,11.939779621690173,-3.9426262721309753,-0.6200541957015699,202.5,67.6,37.77529401876037,-122.41848089760283
2026-03-09 22:42:17.757598,116.02682125121301,11.929650561986183,-3.973178748786987,-0.5759577501898651,203.0,67.52,37.775294937665606,-122.41848129208108
2026-03-09 22:42:17.857602,115.99666608912091,11.918749667785729,-4.003333910879088,-0.5317317166141711,203.5,67.44,37.7752958561759,-122.41848168747804
2026-03-09 22:42:17.957605,115.9669112570838,11.907081299301149,-4.033088742916203,-0.48738604564546256,204.0,67.36,37.77529677429035,-122.4184820837933
2026-03-09 22:42:18.057621,115.93755973056008,11.89465012372426,-4.0624402694399215,-0.4429307148726309,204.5,67.28,37.77529769200801,-122.41848248102647
2026-03-09 22:42:18.157624,115.90861444467795,11.881461113359546,-4.091385555322051,-0.3983757265575528,205.0,67.2,37.77529860932799,-122.41848287917718
2026-03-09 22:42:18.257627,115.88007829394186,11.867519543635302,-4.119921706058129,-0.35373110538463165,205.5,67.12,37.775299526249356,-122.418483278245
2026-03-09 22:42:18.357630,115.85195413194315,11.852830990993532,-4.148045868056855,-0.30900689620529354,206.0,67.03999999999999,37.77530044277119,-122.41848367822955
2026-03-09 22:42:18.457633,115.82424477107453,11.83740133065945,-4.175755228925468,-0.2642131617779223,206.5,66.96000000000001,37.77530135889259,-122.41848407913041
2026-03-09 22:42:18.557636,115.79695298224902,11.82123673429146,-4.203047017750973,-0.21935998050378924,207.0,66.88,37.77530227461263,-122.4184844809472
2026-03-09 22:42:18.657639,115.77008149462277,11.804343667512587,-4.229918505377233,-0.17445744415946352,207.5,66.8,37.77530318993039,-122.4184848836795
2026-03-09 22:42:18.757643,115.74363299532213,11.786728887324305,-4.256367004677872,-0.12951565562618605,208.0,66.72,37.77530410484496,-122.41848528732692
2026-03-09 22:42:18.857646,115.717610129175,11.768399439403826,-4.282389870825006,-0.08454472661678543,208.5,66.64,37.77530501935543,-122.41848569188906
2026-03-09 22:42:18.957649,115.6920154984463,11.74936265528593,-4.307984501553703,-0.03955477540056642,209.0,66.56,37.77530593346088,-122.4184860973655
2026-03-09 22:42:19.057652,115.66685166257778,11.729626149430445,-4.333148337422221,0.0054440754732499215,209.5,66.47999999999999,37.775306847160394,-122.41848650375584
2026-03-09 22:42:19.157655,115.64212113793207,11.70919781617656,-4.357878862067941,0.05044170145304914,210.0,66.4,37.77530776045306,-122.41848691105969
2026-03-09 22:42:19.257658,115.617826397541,11.688085826585208,-4.382173602459007,0.09542797826282076,210.5,66.32,37.77530867333797,-122.41848731927661
2026-03-09 22:42:19.357661,115.59396987085837,11.666298625170732,-4.406030129141627,0.14039278418006967,211.0,66.24000000000001,37.775309585814206,-122.41848772840622
2026-03-09 22:42:19.457665,115.57055394351698,11.643844926523204,-4.429446056483013,0.185326002313153,211.5,66.16,37.77531049788085,-122.41848813844811
2026-03-09 22:42:19.557668,115.54758095709006,11.620733711822709,-4.452419042909942,0.2302175228775541,212.0,66.08,37.775311409537004,-122.41848854940184
2026-03-09 22:42:19.657671,115.52505320885709,11.596974225246981,-4.4749467911429175,0.2750572454705333,212.5,66.0,37.775312320781744,-122.41848896126704
